#------------------------------------------------------------
~VERSION INFORMATION
VERS.               2.0  :CWLS LOG ASCII STANDARD - VERSION 2.0
WRAP.                NO  :ONE LINE PER DEPTH STEP
#------------------------------------------------------------
~WELL INFORMATION
STRT.FT         4.66420  :FIRST INDEX VALUE
STOP.FT         269.533  :LAST INDEX VALUE
STEP.FT         0.00000  :STEP
NULL.            -99999  :NULL VALUE
COMP.                    :
WELL. CARLTON (DARCY TW)  :WELL
FLD.                     :
LOC.                     :
SRVC.                    :
CTRY.               USA  :CTRY
STAT.         MINNESOTA  :STAT
CNTY.              RICE  :CNTY
DATE.        04/22/2025  :DATE
API.             886189  :API
#------------------------------------------------------------
~CURVE INFORMATION
DEPT.FT                  :DEPTH
TIME.SEC                 :Time
TCPU.'C                  :TCPU
COUNT.                   :COUNT
VSP.MV                   :VSP
VSPR.V                   :VSPR
I.MA                     :I
V16.V                    :V16
V64.V                    :V64
SPR.OHM                  :SPR
N16.OHM.M                :N16
N64.OHM.M                :N64
GAMMA.CPS                :Gamma
EHT.VOLTS                :EHT
SPEED.FT/MIN             :Speed
TOOLPOWERVOLTAGE.V       :ToolPowerVoltage
TOOLPOWERCURRENT.MA      :ToolPowerCurrent
#------------------------------------------------------------
~PARAMETER INFORMATION
CASB1.               27  :CASB1
CASB2.              270  :CASB2
CASB3.                   :CASB3
CASB4.                   :CASB4
CASB5.                   :CASB5
CASC1.     STEEL CASING  :CASC1
CASC2.        OPEN HOLE  :CASC2
CASC3.                   :CASC3
CASC4.                   :CASC4
CASC5.                   :CASC5
CASD1.               6"  :CASD1
CASD2.               6"  :CASD2
CASD3.                   :CASD3
CASD4.                   :CASD4
CASD5.                   :CASD5
CAST1.                0  :CAST1
CAST2.               27  :CAST2
CAST3.                   :CAST3
CAST4.                   :CAST4
CAST5.                   :CAST5
DRDP.               275  :DRDP
EGL.             948 L1  :EGL
FTYP.             WATER  :FTYP
LDIR.                UP  :LDIR
LMF.             GROUND  :LMF
LOTD.               269  :LOTD
MGSCUTTINGSNO.      N/A  :MGSCUTTINGSNO
RANG.                19  :RANG
RATE.            15 FPM  :RATE
RECB.             MAYER  :RECB
RMKS.                    :RMKS
RNGD.                 W  :RNGD
RUN.                  1  :RUN
SECT.                31  :SECT
STOP_FT.            269  :STOP.FT
STRT_FT.              8  :STRT.FT
SUBS.            CDCDBB  :SUBS
SWL.                 24  :SWL
TOOL. GAMMA (40-GRP-7082)  :TOOL
TOWN.               112  :TOWN
#------------------------------------------------------------
~OTHER
#------------------------------------------------------------
~A  DEPT[FT]        TIME        TCPU       COUNT         VSP        VSPR           I         V16         V64         SPR         N16         N64       GAMMA         EHT       SPEED  TOOLPOWERV  TOOLPOWERC
# ...
     248.176    0.393000     15.5708     60.9202     690.482    -99999.0    -99999.0     4.94744    0.862889    -99999.0     592.763     443.118     154.871    -1038.25     15.3379     120.235     44.8978
     248.276    0.389938     15.5708     58.9398     690.482     15.5074     50.0303     4.90130    0.863618     309.961     599.288     442.759     149.593    -1034.57     15.3379     120.000     45.4054
     248.376    0.389765     15.7371     51.5199     690.482     15.5125     49.1343     4.88036    -99999.0     315.750     602.963    -99999.0     130.961    -1033.91     15.3379     120.000     45.4054
     248.476    0.389234     15.6217     39.4528     690.368     15.5204     47.7511    -99999.0    0.869145     325.081    -99999.0     440.456     100.389    -1033.91     15.3379     119.234     36.2993
     248.575    0.390531     15.5708     31.7595     689.648     15.5294     46.1456     4.85490    0.872848     336.609     619.727     440.559     80.5652    -1037.59     15.1496     119.000     33.5135
     248.675    -99999.0    -99999.0     26.0359     688.549     15.5381     44.5754     4.87481    0.874986     348.657     627.963     440.793     66.0053    -1038.25     15.0919     119.000     33.5135
     248.775    0.394000     15.5708     24.8615     687.943     15.5452     43.3076     4.91893    -99999.0     358.997     638.046    -99999.0     63.1004    -1038.25     15.0919     119.000     33.5135
     248.875    0.395532     15.5708     27.2413     687.336     15.5509     42.3174     4.99679    0.885421     367.513     651.408     444.470     69.0288    -1034.57     15.0919     119.000     33.5135
     248.975    0.396766     15.5708    -99999.0     686.844     15.5552     41.5161     5.10883    0.889895     374.702     668.492     446.696    -99999.0    -99999.0     15.0919     119.000     32.6854
     249.074    0.398532     15.5708     35.0000    -99999.0    -99999.0    -99999.0     5.22935    0.894302    -99999.0     685.974     448.943     87.7193    -1033.91     15.0290     119.000     32.4324
     249.174    0.399000     15.5708     25.0677     685.632     15.5622     40.1835     5.36252    0.896729     387.278     704.261     450.149     63.2015    -1033.91     15.0098     119.000     32.4324
     249.274    0.398234     15.5708     22.1038     685.518     15.5638     39.8741     5.52453    -99999.0     390.332     725.817    -99999.0     56.2940    -1037.59     15.0727     119.000     31.6041
     249.374    0.398000     15.5708    -99999.0     685.025     15.5654     39.5440     5.67844    0.907723     393.628     745.446     455.821    -99999.0    -1038.25     15.0919     119.000     31.3514
     249.474    0.398000     15.5708     28.0000     685.025     15.5667     39.2964     5.81526    0.911468     396.137     761.475     458.265     71.7949    -1038.25     15.0919     119.000     33.8373
     249.573    -99999.0    -99999.0     23.0319     685.025     15.5675     39.1238     5.93600    0.915518     397.905     774.204     461.136     58.8935    -1034.56     15.0919     119.000     34.5946
     249.673    0.396000     15.5708     23.7276     685.025     15.5681     38.9862     6.03762    0.919275     399.324     784.424     463.867     60.5296    -1033.91     15.0919     119.000     34.5946
     249.773    0.395233     15.5708     34.0765     685.140     15.5683     38.9145     6.12091    0.922376     400.064     792.621     466.032     86.9298    -1033.91     15.1548     119.000     36.2524
     249.873    0.395767     15.5708    -99999.0     685.632     15.5683     38.8753     6.18849    0.925538     400.468     799.196     467.785    -99999.0    -1037.59     15.1739     119.000     36.7568
     249.973    0.396000     15.5708     33.0000     685.632     15.5682     38.8752     6.24023    0.929337     400.467     804.378     469.283     83.7563    -1038.25     15.1739     119.000     38.4146
     250.072    0.394467     15.5708     29.2724     685.746     15.5681     38.9213     6.27846    0.933362     399.990     808.137     470.734     74.0804    -1027.19     15.2368     119.000     38.9189
     250.172    0.393233     15.5708     27.6215     686.352     15.5676     39.0516     6.31037    0.935388     398.642     810.238     471.553     69.4209    -1032.59     15.2559     119.000     38.9189
     250.272    0.393000     15.5708     24.8916     686.844     15.5669     39.2089     6.32687    -99999.0     397.027     810.913    -99999.0     62.4751    -1033.91     15.3188     120.534     42.2356
     250.372    0.390699     15.5708     38.5443     686.959     15.5663     39.3550    -99999.0    0.938281     395.538    -99999.0     474.626     96.6570    -1037.59     15.3379     121.000     43.2432
     250.472    0.390767     15.5708     38.0517     687.450     15.5659     39.4760     6.38552    -99999.0     394.314     809.140    -99999.0     95.3676    -1034.56     15.3379     121.000     40.7557
     250.571    0.391767     15.5708     36.9742     687.450     15.5654     39.5781     6.40084    0.932580     393.284     807.806     480.384     92.8237    -1026.53     15.2121     121.000     40.0000
     250.671    0.393534     15.5708     34.4027     687.565     15.5652     39.6331     6.40726    0.929152     392.732     806.950     483.096     86.4388    -1032.60     15.1739     121.000     40.0000
     250.771    0.394000     15.5708     30.3780     688.057     15.5647     39.7025    -99999.0    0.926490     392.034    -99999.0     486.060     76.4447    -1033.91     15.1739     120.233     33.3644
     250.871    0.393233     15.5708    -99999.0     688.171     15.5640     39.8162     6.40215    0.925054     390.896     803.456     488.756    -99999.0    -99999.0     15.1739     120.000     31.3514
     250.971    0.393000     15.5708     26.0000     688.778    -99999.0    -99999.0     6.38980    0.924859    -99999.0     801.856     491.676     65.4912    -1038.25     15.1739     119.232     30.5214
     251.070    0.394535     15.5708    -99999.0     689.384     15.5614     40.2272     6.37669    0.925852     386.839     800.282     495.371    -99999.0    -1038.25     15.1739     119.000     30.2703
     251.170    0.394232     15.5708     38.0000     690.105     15.5604     40.3618     6.36999    0.927584     385.525     799.418     499.074     96.2025    -1034.56     15.1739     119.000     30.2703
     251.270    0.394000     15.5708     43.6027     691.088     15.5592     40.5156    -99999.0    0.929404     384.031    -99999.0     502.483     110.387    -99999.0     15.1739     119.000     31.1003
     251.370    0.394768     15.5708     37.0396    -99999.0    -99999.0    -99999.0     6.34427    0.930130    -99999.0     796.432     504.944     93.8952    -1033.91     15.1739     119.000     31.3514
     251.470    -99999.0    -99999.0     35.3577     692.415     15.5575     40.6894     6.32914    0.928692     382.349     795.480     505.662     89.4370    -1030.21     15.1739     119.000     31.3514
     251.569    0.399000     15.5708     39.2450     693.022     15.5574     40.6974     6.31075    0.925616     382.270     794.599     504.936     99.7453    -1036.95     15.2369     119.768     37.9935
     251.669    0.395160     15.5708     33.1505     693.628     15.5575     40.6938     6.29033    0.923733     382.305     793.470     504.321     84.3338    -1027.17     15.2559     120.000     40.0000
     251.769    0.392464     15.5708     29.6228     694.119     15.5577     40.6935     6.27051    -99999.0     382.313     792.019    -99999.0     75.3054    -99999.0     15.2559     120.768     42.4908
     251.869    -99999.0    -99999.0     28.7545     694.234    -99999.0    -99999.0     6.25586    0.914559    -99999.0     790.468     499.089     73.1665    -1033.91     15.3189     121.000     43.2432
     251.969    0.390000     15.5708     31.7366     694.841     15.5583     40.6957     6.24859    0.911929     382.309     788.882     496.500     80.4820    -1033.91     15.3379     121.000     43.2432
     252.068    0.391536     15.5708     35.2459     695.332     15.5586     40.6709     6.24568    0.908955     382.548     787.516     493.091     89.5190    -1030.21     15.2119     121.000     44.0738
