#------------------------------------------------------------
~VERSION INFORMATION
VERS.               2.0  :CWLS LOG ASCII STANDARD - VERSION 2.0
WRAP.                NO  :ONE LINE PER DEPTH STEP
#------------------------------------------------------------
~WELL INFORMATION
STRT.FT         4.66420  :FIRST INDEX VALUE
STOP.FT         269.533  :LAST INDEX VALUE
STEP.FT         0.00000  :STEP
NULL.            -99999  :NULL VALUE
COMP.                    :
WELL. CARLTON (DARCY TW)  :WELL
FLD.                     :
LOC.                     :
SRVC.                    :
CTRY.               USA  :CTRY
STAT.         MINNESOTA  :STAT
CNTY.              RICE  :CNTY
DATE.        04/22/2025  :DATE
API.             886189  :API
#------------------------------------------------------------
~CURVE INFORMATION
DEPT.FT                  :DEPTH
TIME.SEC                 :Time
TCPU.'C                  :TCPU
COUNT.                   :COUNT
VSP.MV                   :VSP
VSPR.V                   :VSPR
I.MA                     :I
V16.V                    :V16
V64.V                    :V64
SPR.OHM                  :SPR
N16.OHM.M                :N16
N64.OHM.M                :N64
GAMMA.CPS                :Gamma
EHT.VOLTS                :EHT
SPEED.FT/MIN             :Speed
TOOLPOWERVOLTAGE.V       :ToolPowerVoltage
TOOLPOWERCURRENT.MA      :ToolPowerCurrent
#------------------------------------------------------------
~PARAMETER INFORMATION
CASB1.               27  :CASB1
CASB2.              270  :CASB2
CASB3.                   :CASB3
CASB4.                   :CASB4
CASB5.                   :CASB5
CASC1.     STEEL CASING  :CASC1
CASC2.        OPEN HOLE  :CASC2
CASC3.                   :CASC3
CASC4.                   :CASC4
CASC5.                   :CASC5
CASD1.               6"  :CASD1
CASD2.               6"  :CASD2
CASD3.                   :CASD3
CASD4.                   :CASD4
CASD5.                   :CASD5
CAST1.                0  :CAST1
CAST2.               27  :CAST2
CAST3.                   :CAST3
CAST4.                   :CAST4
CAST5.                   :CAST5
DRDP.               275  :DRDP
EGL.             948 L1  :EGL
FTYP.             WATER  :FTYP
LDIR.                UP  :LDIR
LMF.             GROUND  :LMF
LOTD.               269  :LOTD
MGSCUTTINGSNO.      N/A  :MGSCUTTINGSNO
RANG.                19  :RANG
RATE.            15 FPM  :RATE
RECB.             MAYER  :RECB
RMKS.                    :RMKS
RNGD.                 W  :RNGD
RUN.                  1  :RUN
SECT.                31  :SECT
STOP_FT.            269  :STOP.FT
STRT_FT.              8  :STRT.FT
SUBS.            CDCDBB  :SUBS
SWL.                 24  :SWL
TOOL. GAMMA (40-GRP-7082)  :TOOL
TOWN.               112  :TOWN
#------------------------------------------------------------
~OTHER
#------------------------------------------------------------
~A  DEPT[FT]        TIME        TCPU       COUNT         VSP        VSPR           I         V16         V64         SPR         N16         N64       GAMMA         EHT       SPEED  TOOLPOWERV  TOOLPOWERC
# ...
     24.6242    0.365593     15.7880     6.41811     576.939     15.7711    0.324826     7.84975    0.193259     48970.4     68480.1     2371.96     33.4035    -99999.0     16.4042     120.407     25.7830
     24.7240    0.365407     15.7880     3.34326     604.905    -99999.0    -99999.0     9.00411    0.207613    -99999.0     72475.8     2380.44     17.3830    -1033.91     16.4042     120.000     22.7027
     24.8238    -99999.0    -99999.0     5.44778     558.064     15.7702    0.481419    -99999.0    0.223977     32757.8    -99999.0     2423.11     28.3739    -99999.0     17.5718     120.000     22.7027
     24.9236    0.362000     15.7880     7.34340     541.548    -99999.0    -99999.0     11.8963    0.239308    -99999.0     82723.7     2484.96     38.0305    -1029.56     18.3727     119.407     23.9855
     25.0234    0.353694     15.7880     7.20823     554.959     15.7705    0.495646     12.9380    0.254116     31818.0     86369.3     2609.24     37.2156    -1035.43     19.3946     119.000     24.8649
     25.1232    0.337914     15.7880     5.89619     572.944     15.7704    0.510797    -99999.0    0.270909     30893.1    -99999.0     2788.53     30.3015    -1035.31     20.0951     119.000     24.8649
     25.2230    -99999.0    -99999.0     6.55189     577.757     15.7699    0.548304     14.6917    0.294280     28810.4     89979.7     3034.83     33.2894    -1033.91     20.0951     119.000     26.7897
     25.3228    0.297000     15.7880     7.34443     578.662     15.7690    0.606873     15.2603    0.314049     26063.6     92731.6     3246.82     37.5131    -99999.0     20.0951     119.000     28.1081
     25.4226    -99999.0    -99999.0     9.89654     483.879    -99999.0    -99999.0     15.5803    0.333585    -99999.0     95313.0     3454.82     51.0131    -1029.56     20.3386     119.000     28.1081
     25.5224    0.298000     15.7880     9.65467     452.819     15.7670    0.723158    -99999.0    0.353161     21803.0    -99999.0     3661.37     49.4848    -1029.56     20.5052     120.187     32.6007
     25.6222    0.298000     15.7880     6.65463     413.343     15.7664    0.747903     15.7539    0.373502     21097.0     99795.6     3874.73     33.9558    -99999.0     20.5052     121.000     35.6757
     25.7220    0.298594     15.7880     5.89698     407.943    -99999.0    -99999.0     15.7542    0.394452    -99999.0     100244.     4076.11     30.3138    -1055.63     25.0839     121.000     35.6757
     25.8218    0.291872     15.7880     6.55150     406.153     15.7648    0.830792     15.7543    0.419105     18975.7     100357.     4300.74     33.4573    -1055.63     28.2152     121.000     33.1071
     25.9216    -99999.0    -99999.0     7.34590    -99999.0     15.7647    0.837686     15.7533    0.446341     18820.2     97156.7     4550.22     36.9814    -1043.88     28.2152     121.000     31.3514
     26.0214    0.271000     15.7880     10.7951    -99999.0     15.7643    0.837937     15.7498    0.472431     18813.6     87549.0     4800.37     53.5446    -99999.0     29.9692     121.000     31.3514
     26.1212    0.228220     15.7880     9.85838    -99999.0    -99999.0    -99999.0     15.7453    0.489013    -99999.0     77463.2     4959.04     48.7624    -1033.91     31.1680     121.000     31.3514
     26.2210    -99999.0    -99999.0     5.55118     395.221     15.7640    0.807061     15.7410    -99999.0     19532.6     70146.3    -99999.0     27.5901    -1033.91     31.1680     121.000     28.7814
     26.3208    0.190000     15.7880     6.34684     393.999     15.7640    0.805095     15.7359    0.549133     19580.4     62998.1     5559.38     30.7573    -1030.97     31.1680     121.000     27.0270
     26.4206    0.190000     15.7880     10.2456     392.200     15.7640    0.801151     15.7303    0.598077     19676.9     56955.6     6051.69     47.7463    -1032.50     31.1680     121.000     27.0270
     26.5204    0.190000     15.7880     11.2034     391.613     15.7641    0.804782     15.7246    0.647111     19588.7     52457.4     6549.12     50.8260    -1033.91     31.1192     121.000     27.0270
     26.6202    -99999.0    -99999.0     6.30493     392.180     15.7639    0.856593     15.7187    0.695968     18443.8     48415.3     7091.79     28.1149    -1033.91     31.0860     121.000     27.0270
     26.7200    0.193000     16.0052     6.14425     390.351     15.7635    0.962938     15.7117    0.751345     16437.3     45192.8     7724.90     25.7007    -1030.97     31.0860     120.405     25.7413
     26.8198    0.193000     15.8760     10.0000     387.936     15.7631     1.07405     15.7039    0.866595     14709.3     42591.5     9032.50     41.1523    -1032.50     31.0860     120.000     24.8649
     26.9196    0.191811     15.7880    -99999.0     386.147     15.7627     1.19071     15.6982     1.20767     13274.9     40790.9     12566.6    -99999.0    -1036.85     31.0860     120.000     24.8649
     27.0194    0.191595     15.7880     3.44949    -99999.0     15.7621     1.32493     15.6970     2.24803     11929.1     40287.9     22675.4     11.6294    -1035.31     30.8420     120.000     24.8649
     27.1192    0.192595     15.7880     4.44952     376.921     15.7616     1.45146     15.6953     4.59859     10876.6     40385.1     43982.9     14.0097    -1033.91     30.6759     120.000     24.8649
     27.2190    0.192405     15.7880     4.10066     368.978     15.7612     1.57599     15.6873     8.09624     10017.4     40439.2     72135.7     12.1132    -1025.08     30.6759     119.405     23.5783
     27.3188    0.192000     15.7880     5.69902     357.428     15.7607     1.69948     15.6736     11.3142     9285.10     40505.5     86122.8     14.5721    -1029.70     30.6759     119.000     22.7027
     27.4186    0.193190     15.9173     7.20065     344.080     15.7602     1.81358     15.6555     13.6695     8698.01     40533.3     76409.9     16.9012    -1033.91     30.6759     119.000     22.7027
     27.5184    0.193405     15.8759     7.24934     330.081     15.7598     1.91661     15.6346     14.6827     8227.99     40517.9     64295.4     14.6659    -1033.91     30.5294     119.000     22.7027
     27.6182    0.194786     15.7880     10.4499     313.272     15.7596     1.97711     15.6111     14.4825     7971.64     40493.3     52294.6     20.5112    -1033.91     30.4298     119.000     22.7027
     27.7180    0.197191     15.7880     9.19995     306.322     15.7596     1.98791     15.5862     14.3242     7927.70     40279.1     45630.9     18.1376    -1033.91     30.4298     119.000     22.7027
     27.8178    0.195619     15.7880     10.6012     317.788     15.7595     1.98374     15.5596     14.3176     7944.32     39934.5     44794.9     21.7638    -1033.91     30.4298     119.000     23.9900
     27.9176    0.194000     15.7880     12.2989     326.244     15.7596     1.97942     15.5300     14.3151     7961.71     39587.4     44434.4     25.2726    -1033.91     30.4298     119.000     24.8649
     28.0174    0.195787     15.7880     10.3506     332.957     15.7597     1.97463     15.4974     13.9351     7981.06     39373.1     37706.7     20.4512    -1030.96     30.4298     119.000     24.8649
     28.1172    0.195213     15.7880     12.4504     342.041     15.7597     1.97216     15.4727     11.3560     7991.07     39226.9     17261.8     24.8579    -1032.51     29.5503     119.000     24.8649
     28.2170    0.194596     15.7880     13.9010     350.133     15.7597     1.96921    -99999.0     6.23004     8003.04    -99999.0     3491.07     27.7434    -1033.91     28.9534     119.000     24.8649
     28.3168    0.196191     15.7880     14.0989     336.328     15.7597     1.97066     15.4081     3.51212     7997.16     38996.1     1565.60     27.1592    -1033.91     28.9534     119.000     25.5089
     28.4166    0.198788     15.7880     17.0550     330.297     15.7596     1.98049     15.3871     3.38420     7957.54     38930.8     1520.60     32.0486    -1048.63     28.9534     119.000     25.9459
     28.5164    0.201788     15.7880     21.5494     326.075     15.7596     1.99517     15.3725     3.33951     7899.00     38878.6     1505.87     40.3972    -1040.90     28.9534     119.000     25.9459
