#------------------------------------------------------------
~VERSION INFORMATION
VERS.               2.0  :CWLS LOG ASCII STANDARD - VERSION 2.0
WRAP.                NO  :ONE LINE PER DEPTH STEP
#------------------------------------------------------------
~WELL INFORMATION
STRT.FT         4.66420  :FIRST INDEX VALUE
STOP.FT         269.533  :LAST INDEX VALUE
STEP.FT         0.00000  :STEP
NULL.            -99999  :NULL VALUE
COMP.                    :
WELL. CARLTON (DARCY TW)  :WELL
FLD.                     :
LOC.                     :
SRVC.                    :
CTRY.               USA  :CTRY
STAT.         MINNESOTA  :STAT
CNTY.              RICE  :CNTY
DATE.        04/22/2025  :DATE
API.             886189  :API
#------------------------------------------------------------
~CURVE INFORMATION
DEPT.FT                  :DEPTH
TIME.SEC                 :Time
TCPU.'C                  :TCPU
COUNT.                   :COUNT
VSP.MV                   :VSP
VSPR.V                   :VSPR
I.MA                     :I
V16.V                    :V16
V64.V                    :V64
SPR.OHM                  :SPR
N16.OHM.M                :N16
N64.OHM.M                :N64
GAMMA.CPS                :Gamma
EHT.VOLTS                :EHT
SPEED.FT/MIN             :Speed
TOOLPOWERVOLTAGE.V       :ToolPowerVoltage
TOOLPOWERCURRENT.MA      :ToolPowerCurrent
#------------------------------------------------------------
~PARAMETER INFORMATION
CASB1.               27  :CASB1
CASB2.              270  :CASB2
CASB3.                   :CASB3
CASB4.                   :CASB4
CASB5.                   :CASB5
CASC1.     STEEL CASING  :CASC1
CASC2.        OPEN HOLE  :CASC2
CASC3.                   :CASC3
CASC4.                   :CASC4
CASC5.                   :CASC5
CASD1.               6"  :CASD1
CASD2.               6"  :CASD2
CASD3.                   :CASD3
CASD4.                   :CASD4
CASD5.                   :CASD5
CAST1.                0  :CAST1
CAST2.               27  :CAST2
CAST3.                   :CAST3
CAST4.                   :CAST4
CAST5.                   :CAST5
DRDP.               275  :DRDP
EGL.             948 L1  :EGL
FTYP.             WATER  :FTYP
LDIR.                UP  :LDIR
LMF.             GROUND  :LMF
LOTD.               269  :LOTD
MGSCUTTINGSNO.      N/A  :MGSCUTTINGSNO
RANG.                19  :RANG
RATE.            15 FPM  :RATE
RECB.             MAYER  :RECB
RMKS.                    :RMKS
RNGD.                 W  :RNGD
RUN.                  1  :RUN
SECT.                31  :SECT
STOP_FT.            269  :STOP.FT
STRT_FT.              8  :STRT.FT
SUBS.            CDCDBB  :SUBS
SWL.                 24  :SWL
TOOL. GAMMA (40-GRP-7082)  :TOOL
TOWN.               112  :TOWN
#------------------------------------------------------------
~OTHER
#------------------------------------------------------------
~A  DEPT[FT]        TIME        TCPU       COUNT         VSP        VSPR           I         V16         V64         SPR         N16         N64       GAMMA         EHT       SPEED  TOOLPOWERV  TOOLPOWERC
# ...
     144.384    -99999.0    -99999.0     10.7800     669.934     15.3830     63.3777     4.62367     1.03742     242.721     404.639     463.244     27.2223    -1030.57     15.0919     121.000     40.0000
     144.484    0.396000     15.5708     10.2195     670.476     15.3823     63.5800     4.56768     1.04430     241.937     406.784     467.386     25.8797    -1029.56     15.0356     121.000     40.0000
     144.584    0.396685     15.5708     4.83948     670.410     15.3841     63.4231    -99999.0     1.05078     242.564    -99999.0     470.516     12.3353    -99999.0     15.0098     120.315     43.7053
     144.684    0.398371     15.7197     7.86178     669.804    -99999.0    -99999.0     4.41236     1.05553    -99999.0     414.331     472.128     20.1494    -1029.56     15.0661     120.000     45.4054
     144.783    0.398314     15.7880     12.5404     669.263     15.3955     61.8605     4.36862     1.05782     248.875     417.097     471.895     32.1088    -1032.90     15.0919     120.686     42.4401
     144.883    0.398000     15.6391     9.21774     669.263     15.4015     60.9330     4.34362     1.05729     252.789     419.522     469.319     23.5748    -1033.91     15.0919     121.000     41.0811
     144.983    0.395943     15.5708     8.16203    -99999.0     15.4111     59.4109     4.33385     1.05391     259.439     420.986     463.526     20.8747    -1030.57     15.2606     121.000     41.0811
     145.083    0.395000     15.7198     11.6215    -99999.0     15.4207     57.8393    -99999.0     1.05050     266.656    -99999.0     454.991     29.6767    -99999.0     15.3379     121.000     46.2713
     145.183    -99999.0    -99999.0     8.13370     666.166    -99999.0    -99999.0     4.34473     1.04970    -99999.0     425.075     444.379     20.7492    -1029.56     15.3942     121.000     48.6486
     145.282    0.390000     15.5708     6.70316     665.495     15.4397     54.7401     4.37192     1.05308     282.054     427.626     432.682     17.0056    -1032.90     15.4199     119.628     39.0079
     145.382    0.389314     15.7198     7.91835     664.282     15.4437     54.0524     4.39430     1.06251     285.739     429.761     421.539     19.9982    -1033.91     15.4199     119.000     34.5946
     145.482    0.388314     15.7880     7.54076     663.135     15.4486     53.2599    -99999.0     1.07641     290.071    -99999.0     411.948     19.0219    -1030.57     15.4199     119.000     34.5946
     145.582    0.388000     15.7880     8.54095     662.463     15.4525     52.7217     4.46516     1.08886     293.100     444.194     403.702     21.5371    -99999.0     15.4199     120.373     39.7883
     145.682    -99999.0    -99999.0     7.37698     661.251    -99999.0    -99999.0     4.48642     1.09606    -99999.0     453.508     396.218     18.5818    -1038.25     15.3074     121.000     42.1622
     145.781    0.388000     15.7880     6.00000     660.104     15.4577     52.1938     4.50231     1.10288     296.159     464.372     389.178     15.0724    -1031.57     15.2559     120.314     44.3886
     145.881    0.389373     15.7880     11.4113     659.432     15.4588     52.2041     4.51714     1.10882     296.123     475.866     384.961     28.6544    -1026.22     15.2559     120.000     45.4054
     145.981    0.390687     15.6389     11.1287     658.285     15.4608     52.2158     4.53759    -99999.0     296.094     487.261    -99999.0     27.9855    -99999.0     15.1996     120.000     45.4054
     146.081    0.392373     15.5708     11.8719     657.679    -99999.0    -99999.0     4.56749    -99999.0    -99999.0     498.066    -99999.0     29.9592    -1042.59     15.1739     119.313     38.7241
     146.181    -99999.0    -99999.0     15.4586     657.007     15.4701     51.5951     4.60548     1.20966     299.837     507.745     364.671     39.0369    -1035.91     15.0612     119.000     35.6757
     146.280    0.397000     15.7880     15.0000     655.860     15.4743     51.0982     4.64378     1.24003     302.848     515.770     360.944     38.0881    -1033.91     15.0098     119.000     35.6757
     146.380    0.395626     15.7880     17.7082     655.319     15.4807     50.2026     4.67788     1.25695     308.390     522.146     358.214     45.3156    -1033.91     15.0098     119.687     34.1903
     146.480    0.397061     15.6388     16.7505    -99999.0     15.4869     49.1656     4.70942     1.25992     315.027     526.912     356.000     42.9501    -1033.91     15.0662     120.000     33.5135
     146.580    -99999.0    -99999.0    -99999.0     656.532     15.4920     48.1555     4.73420     1.25520     321.736     529.979     353.707    -99999.0    -1030.56     15.0919     120.000     33.5135
     146.680    0.398000     15.5708    -99999.0    -99999.0     15.4959     47.2952     4.75500     1.24570     327.662     531.760     351.641    -99999.0    -1032.90     15.2046     120.000     33.5135
     146.779    0.396626     15.7201     11.0000     658.549     15.4989     46.6414     4.77694     1.23346     332.311     532.825     349.742     28.3505    -1033.91     15.2559     120.000     33.5135
     146.879    0.396000     15.6387     9.91623     660.302     15.5012     46.1984     4.80438     1.21968     335.540     533.294     348.510     25.4928    -1033.91     15.2559     120.687     37.2283
     146.979    0.393938     15.5708     7.37376     661.448     15.5031     45.8900     4.84472     1.20403     337.833     532.943     347.952     18.8645    -1033.91     15.3123     121.000     38.9189
     147.079    0.391625     15.5708     8.71006     661.988     15.5044     45.7072     4.90000     1.18478     339.212     530.957     347.310     22.2584    -1033.91     15.3379     121.000     38.9189
     147.179    0.390312     15.7201     9.91559    -99999.0     15.5053     45.6283     4.97233     1.16368     339.817     526.775     346.198     25.3277    -1033.91     15.2815     121.000     38.9189
     147.278    0.390688     15.7880     8.45774     663.333     15.5055     45.6268     5.05340     1.14416     339.834     519.739     344.316     21.6042    -1030.56     15.2559     121.000     38.9189
     147.378    0.391000     15.6386     9.62699     664.413     15.5051     45.6982     5.13380     1.12766     339.294     509.940     341.583     24.5053    -1029.56     15.2559     121.000     39.6624
     147.478    0.391000     15.5708     11.5424    -99999.0     15.5040     45.8406     5.20242     1.11703     338.218     498.451     338.833     29.2954    -1032.91     15.1995     121.000     40.0000
     147.578    0.391688     15.5708     9.82968     667.644     15.5019     46.1182     5.24211     1.11338     336.138     486.437     337.396     24.8928    -1030.56     15.1739     121.688     42.2309
     147.678    0.392000     15.7202     6.91497     669.529     15.4981     46.6183     5.23653    -99999.0     332.458     473.693    -99999.0     17.4413    -1029.56     15.1739     122.000     43.2432
     147.777    0.394064     15.7880     5.45749     671.888     15.4919     47.4457     5.20069    -99999.0     326.547     459.339    -99999.0     13.7297    -1032.91     15.1175     122.000     43.2432
     147.877    0.396376     15.6385     6.62812     673.573     15.4831     48.6513     5.17574     1.14850     318.298     449.229     336.292     16.6810    -1033.91     15.0919     121.312     41.7555
     147.977    0.396312     15.7202     8.00000     674.113     15.4720     50.2227    -99999.0     1.17034     308.144    -99999.0     337.644     20.0963    -1037.25     15.0354     121.000     41.0811
     148.077    0.396688     15.7880     8.54283    -99999.0     15.4590     52.0593    -99999.0     1.19549     297.039    -99999.0     339.540     21.5034    -1034.90     15.0098     121.000     41.0811
     148.177    0.397000     15.7880     9.54289     676.605     15.4455     53.9312     5.27592     1.22830     286.469     398.317     342.850     24.2029    -1033.91     15.0098     121.000     41.0811
     148.276    0.398377     15.6385    -99999.0     677.211     15.4335     55.5449     5.34610     1.26141     277.901     389.487     347.351    -99999.0    -1033.91     15.0663     121.000     41.0811
