#------------------------------------------------------------
~VERSION INFORMATION
VERS.               2.0  :CWLS LOG ASCII STANDARD - VERSION 2.0
WRAP.                NO  :ONE LINE PER DEPTH STEP
#------------------------------------------------------------
~WELL INFORMATION
STRT.FT         4.66420  :FIRST INDEX VALUE
STOP.FT         269.533  :LAST INDEX VALUE
STEP.FT         0.00000  :STEP
NULL.            -99999  :NULL VALUE
COMP.                    :
WELL. CARLTON (DARCY TW)  :WELL
FLD.                     :
LOC.                     :
SRVC.                    :
CTRY.               USA  :CTRY
STAT.         MINNESOTA  :STAT
CNTY.              RICE  :CNTY
DATE.        04/22/2025  :DATE
API.             886189  :API
#------------------------------------------------------------
~CURVE INFORMATION
DEPT.FT                  :DEPTH
TIME.SEC                 :Time
TCPU.'C                  :TCPU
COUNT.                   :COUNT
VSP.MV                   :VSP
VSPR.V                   :VSPR
I.MA                     :I
V16.V                    :V16
V64.V                    :V64
SPR.OHM                  :SPR
N16.OHM.M                :N16
N64.OHM.M                :N64
GAMMA.CPS                :Gamma
EHT.VOLTS                :EHT
SPEED.FT/MIN             :Speed
TOOLPOWERVOLTAGE.V       :ToolPowerVoltage
TOOLPOWERCURRENT.MA      :ToolPowerCurrent
#------------------------------------------------------------
~PARAMETER INFORMATION
CASB1.               27  :CASB1
CASB2.              270  :CASB2
CASB3.                   :CASB3
CASB4.                   :CASB4
CASB5.                   :CASB5
CASC1.     STEEL CASING  :CASC1
CASC2.        OPEN HOLE  :CASC2
CASC3.                   :CASC3
CASC4.                   :CASC4
CASC5.                   :CASC5
CASD1.               6"  :CASD1
CASD2.               6"  :CASD2
CASD3.                   :CASD3
CASD4.                   :CASD4
CASD5.                   :CASD5
CAST1.                0  :CAST1
CAST2.               27  :CAST2
CAST3.                   :CAST3
CAST4.                   :CAST4
CAST5.                   :CAST5
DRDP.               275  :DRDP
EGL.             948 L1  :EGL
FTYP.             WATER  :FTYP
LDIR.                UP  :LDIR
LMF.             GROUND  :LMF
LOTD.               269  :LOTD
MGSCUTTINGSNO.      N/A  :MGSCUTTINGSNO
RANG.                19  :RANG
RATE.            15 FPM  :RATE
RECB.             MAYER  :RECB
RMKS.                    :RMKS
RNGD.                 W  :RNGD
RUN.                  1  :RUN
SECT.                31  :SECT
STOP_FT.            269  :STOP.FT
STRT_FT.              8  :STRT.FT
SUBS.            CDCDBB  :SUBS
SWL.                 24  :SWL
TOOL. GAMMA (40-GRP-7082)  :TOOL
TOWN.               112  :TOWN
#------------------------------------------------------------
~OTHER
#------------------------------------------------------------
~A  DEPT[FT]        TIME        TCPU       COUNT         VSP        VSPR           I         V16         V64         SPR         N16         N64       GAMMA         EHT       SPEED  TOOLPOWERV  TOOLPOWERC
# ...
     212.248    0.392525     15.7310     9.18485    -99999.0     15.5836     36.8783     6.22723     1.09857     422.574     863.314     526.969     23.2948    -1030.34     15.1739     121.000     40.0000
     212.348    -99999.0    -99999.0     7.63030     671.785     15.5850     36.6614     6.30127     1.09498     425.109     864.019     527.702     19.3172    -1033.12     15.1739     121.000     40.0000
     212.448    0.395000     15.5708    -99999.0     672.391     15.5859     36.5159     6.39067     1.09245     426.826     863.688     529.093    -99999.0    -1037.47     15.1739     119.524     33.6182
     212.548    0.395000     15.5708     11.0000     672.901     15.5865     36.4030     6.49274     1.09023     428.167     861.667     531.028     27.6382    -1034.69     15.1739     119.000     31.3514
     212.647    0.394262     15.7311     6.85198     672.901     15.5868     36.3656     6.60750     1.08917     428.614     857.688     533.810     17.2160    -1033.91     15.1739     119.000     31.3514
     212.747    0.395476     15.6277     11.1121     672.901     15.5865     36.4414     6.73238     1.08921     427.714     852.437     537.177     27.9799    -1041.03     15.1739     119.000     31.3514
     212.847    0.396000     15.7311     13.0366     672.901     15.5855     36.6355     6.86069     1.08865     425.424     847.224     540.380     32.8793    -1035.47     15.1739     119.000     31.3514
     212.947    0.394524     15.6277     12.1856     672.901     15.5838     36.9555     6.98550     1.08623     421.699     843.041     542.916     30.8706    -1041.03     15.1739     119.738     39.3313
     213.047    0.392523     15.5708     15.9659     672.998     15.5813     37.4076     7.09855     1.08180     416.541     840.782     544.586     40.3857    -1039.03     15.2344     120.000     42.1622
     213.146    0.393476     15.5708     12.6637     673.604     15.5779     37.9968     7.18906     1.07561     410.001     840.792     545.507     32.0473    -1034.69     15.2559     120.000     42.1622
     213.246    0.394738     15.5708     11.3727     674.307     15.5736     38.7472     7.25182     1.06779     401.962     842.413     545.927     28.5712    -1033.91     15.2559     120.738     39.7674
     213.346    0.394261     15.7312     13.0000     675.326     15.5685     39.6661     7.28679     1.05972     392.536     844.430     546.362     32.8434    -1037.47     15.3165     121.000     38.9189
     213.446    0.391045     15.7880     10.6267    -99999.0     15.5629     40.6795     7.29885     1.05294     382.624     846.453     547.143     26.9711    -1038.25     15.3379     121.000     38.9189
     213.546    0.391477     15.6276     11.3737     676.538     15.5574     41.6926     7.29396     1.04674     373.188     848.328     547.959     28.7449    -1027.55     15.3379     120.261     33.3291
     213.645    0.391261     15.5708     12.4066    -99999.0     15.5525     42.6151     7.27152     1.04140     364.983     849.190     548.605     31.3297    -1032.35     15.2773     120.000     31.3514
     213.745    0.392478     15.5708     14.9671    -99999.0     15.5486     43.3379     7.25324     1.03748     358.793     849.372     549.432     37.7958    -1037.47     15.2559     119.261     31.3514
     213.845    0.392261     15.5708     21.7474     678.357     15.5460     43.7938    -99999.0     1.03532     354.988    -99999.0     550.051     55.0126    -1038.25     15.1347     119.000     31.3514
     213.945    0.392739     15.5708     16.0963     678.259     15.5447     44.0193     7.15744    -99999.0     353.135     847.257    -99999.0     40.7123    -1034.68     15.0919     119.000     31.3514
     214.045    0.393000     15.7313     8.81214     677.750     15.5443     44.0740     7.11118     1.02385     352.686     845.245     552.368     22.2833    -1033.91     15.0919     119.000     32.1504
     214.144    0.394478     15.7880     13.3431    -99999.0     15.5442     44.0036     7.05729     1.02045     353.249     842.374     553.877     33.8449    -1030.34     15.1525     119.000     32.4324
     214.244    0.395739     15.7880     12.8425    -99999.0     15.5444     43.8550     6.99609     1.01850     354.451     838.819     554.761     32.6721    -1033.13     15.1739     119.000     35.6298
     214.344    0.396000     15.6274     12.9684     677.242     15.5447     43.6641     6.93137    -99999.0     356.008     834.941    -99999.0     32.9101    -99999.0     15.1739     119.000     36.7568
     214.444    0.395261     15.5708     13.8118     677.848    -99999.0    -99999.0     6.86765    -99999.0    -99999.0     831.351    -99999.0     35.0662    -1038.25     15.1739     119.000     36.7568
     214.544    0.396479     15.5708    -99999.0     678.455     15.5457     43.2143     6.81043     1.00675     359.734     829.095     564.437    -99999.0    -1038.25     15.1739     119.000     34.3587
     214.643    0.394042     15.5708     10.0000     678.963     15.5460     43.0836     6.76587     1.00514     360.835     828.788     566.850     25.5754    -1038.25     15.1132     119.000     33.5135
     214.743    0.394479     15.7315     11.1887     679.061     15.5465     42.9072     6.73633    -99999.0     362.330     830.348    -99999.0     28.6623    -1038.25     15.0919     119.740     39.9105
     214.843    0.395000     15.6273     12.0000     679.569     15.5471     42.7234     6.71823     1.00897     363.902     833.464     579.202     30.7692    -1041.82     15.0919     120.000     42.1622
     214.943    -99999.0    -99999.0    -99999.0     679.471     15.5477     42.5282     6.70653    -99999.0     365.586     837.773    -99999.0    -99999.0    -1042.59     15.0919     120.000     42.1622
     215.043    0.398000     15.7880    -99999.0     678.865     15.5483     42.3304     6.69847     1.02794     367.310     842.774     596.709    -99999.0    -1031.88     15.0919     119.260     39.7633
     215.142    0.398000     15.6273     13.0000     678.357     15.5490     42.1132     6.69190     1.04095     369.221     848.214     605.601     33.3333    -1029.56     15.0919     119.000     38.9189
     215.242    0.397260     15.5708     15.9742     678.357     15.5496     41.8646     6.68349     1.05425     371.429     853.983     614.293     40.9594    -1033.13     15.0919     119.000     38.9189
     215.342    0.396260     15.5708    -99999.0     678.259     15.5498     41.6043     6.67427     1.06660     373.759     859.992     622.427    -99999.0    -1033.91     15.0919     119.000     38.9189
     215.442    0.394519     15.5708     8.00000     677.750     15.5500     41.3458     6.66946     1.07720     376.099     866.173     629.588     20.2532    -1037.48     15.0919     119.000     38.9189
     215.542    0.395481     15.5708    -99999.0     677.750     15.5504     41.0732     6.66862     1.08592     378.604     872.494     635.698    -99999.0    -1031.10     15.0919     120.481     43.7216
     215.641    0.394519     15.7316     18.0000     677.652     15.5514     40.7861     6.66960     1.09378     381.296     878.208     641.256     45.3400    -1025.99     15.1526     121.000     45.4054
     215.741    0.398442     15.6272     13.8344     677.144     15.5528     40.4939     6.67590     1.10203     384.083     883.659     646.836     34.8060    -1035.94     15.1739     121.000     45.4054
     215.841    0.394817     15.5708     15.7615     677.046     15.5548     40.1882     6.68213     1.11150     387.054     887.526     653.020     39.7452    -1023.96     15.1739     121.000     44.6050
     215.941    0.394481     15.7317     13.0482     676.538     15.5568     39.8560    -99999.0     1.12244     390.332    -99999.0     659.968     32.9499    -1035.17     15.1739     121.000     44.3243
     216.041    0.395741     15.6271     13.1663     676.439     15.5586     39.5268     6.69639     1.12873     393.627     902.969     663.949     33.3703    -1031.10     15.1739     121.741     43.5236
     216.140    0.396000     15.7317     9.45133     675.932     15.5599     39.2273     6.70400    -99999.0     396.663     909.465    -99999.0     23.9881    -1033.13     15.1131     122.000     43.2432
