#------------------------------------------------------------
~VERSION INFORMATION
VERS.               2.0  :CWLS LOG ASCII STANDARD - VERSION 2.0
WRAP.                NO  :ONE LINE PER DEPTH STEP
#------------------------------------------------------------
~WELL INFORMATION
STRT.FT         4.66420  :FIRST INDEX VALUE
STOP.FT         269.533  :LAST INDEX VALUE
STEP.FT         0.00000  :STEP
NULL.            -99999  :NULL VALUE
COMP.                    :
WELL. CARLTON (DARCY TW)  :WELL
FLD.                     :
LOC.                     :
SRVC.                    :
CTRY.               USA  :CTRY
STAT.         MINNESOTA  :STAT
CNTY.              RICE  :CNTY
DATE.        04/22/2025  :DATE
API.             886189  :API
#------------------------------------------------------------
~CURVE INFORMATION
DEPT.FT                  :DEPTH
TIME.SEC                 :Time
TCPU.'C                  :TCPU
COUNT.                   :COUNT
VSP.MV                   :VSP
VSPR.V                   :VSPR
I.MA                     :I
V16.V                    :V16
V64.V                    :V64
SPR.OHM                  :SPR
N16.OHM.M                :N16
N64.OHM.M                :N64
GAMMA.CPS                :Gamma
EHT.VOLTS                :EHT
SPEED.FT/MIN             :Speed
TOOLPOWERVOLTAGE.V       :ToolPowerVoltage
TOOLPOWERCURRENT.MA      :ToolPowerCurrent
#------------------------------------------------------------
~PARAMETER INFORMATION
CASB1.               27  :CASB1
CASB2.              270  :CASB2
CASB3.                   :CASB3
CASB4.                   :CASB4
CASB5.                   :CASB5
CASC1.     STEEL CASING  :CASC1
CASC2.        OPEN HOLE  :CASC2
CASC3.                   :CASC3
CASC4.                   :CASC4
CASC5.                   :CASC5
CASD1.               6"  :CASD1
CASD2.               6"  :CASD2
CASD3.                   :CASD3
CASD4.                   :CASD4
CASD5.                   :CASD5
CAST1.                0  :CAST1
CAST2.               27  :CAST2
CAST3.                   :CAST3
CAST4.                   :CAST4
CAST5.                   :CAST5
DRDP.               275  :DRDP
EGL.             948 L1  :EGL
FTYP.             WATER  :FTYP
LDIR.                UP  :LDIR
LMF.             GROUND  :LMF
LOTD.               269  :LOTD
MGSCUTTINGSNO.      N/A  :MGSCUTTINGSNO
RANG.                19  :RANG
RATE.            15 FPM  :RATE
RECB.             MAYER  :RECB
RMKS.                    :RMKS
RNGD.                 W  :RNGD
RUN.                  1  :RUN
SECT.                31  :SECT
STOP_FT.            269  :STOP.FT
STRT_FT.              8  :STRT.FT
SUBS.            CDCDBB  :SUBS
SWL.                 24  :SWL
TOOL. GAMMA (40-GRP-7082)  :TOOL
TOWN.               112  :TOWN
#------------------------------------------------------------
~OTHER
#------------------------------------------------------------
~A  DEPT[FT]        TIME        TCPU       COUNT         VSP        VSPR           I         V16         V64         SPR         N16         N64       GAMMA         EHT       SPEED  TOOLPOWERV  TOOLPOWERC
# ...
     160.352    0.391000     15.7880     13.4477     640.770     15.6209     29.2844    -99999.0     1.13767     533.431    -99999.0     803.115     33.8336    -1044.07     15.2559     120.000     28.1081
     160.452    0.391000     15.7880     14.1047    -99999.0     15.6195     29.4944     8.12191     1.13302     529.578     1358.61     799.675     35.5810    -1040.16     15.2559     120.000     28.1081
     160.552    0.392396     15.7880     21.0780     639.484     15.6177     29.7233     8.06675     1.12721     525.445     1355.68     794.437     53.3191    -1038.25     15.2559     120.000     28.1081
     160.652    -99999.0    -99999.0     20.4751     638.806     15.6158     29.9688     7.99945     1.12156     521.077     1354.40     788.297     51.8357    -1038.25     15.2559     121.396     37.1614
     160.751    0.392000     15.5708     20.4214     637.520     15.6140     30.1957     7.95077     1.11770     517.098     1354.14     782.375     51.7849    -1034.86     15.2559     122.000     41.0811
     160.851    0.392698     15.7224    -99999.0     635.774     15.6122     30.3977    -99999.0     1.11650     513.601    -99999.0     777.458    -99999.0    -99999.0     15.2559     122.000     41.0811
     160.951    0.392302     15.6363     24.0000     634.707    -99999.0    -99999.0     7.75727     1.11770    -99999.0     1350.16     773.754     60.9137    -1033.91     15.2559     120.604     32.7788
     161.051    0.392698     15.7224     18.4713    -99999.0     15.6095     30.5707     7.70654     1.12170     510.604     1348.15     771.424     46.8816    -1030.52     15.2559     120.000     29.1892
     161.151    0.392302     15.7880     18.4244    -99999.0     15.6095     30.4928    -99999.0     1.12689     511.908    -99999.0     769.775     46.6842    -1022.78     15.1986     120.698     36.7390
     161.250    0.392698     15.6363     18.1295     631.070     15.6098     30.3235     7.55412     1.12932     514.783     1338.93     768.654     45.9509    -1031.04     15.1739     121.000     40.0000
     161.350    0.393000     15.5708     11.1282     631.070     15.6108     30.0703     7.51857    -99999.0     519.152     1336.39    -99999.0     28.2441    -99999.0     15.1739     121.000     40.0000
     161.450    -99999.0    -99999.0     10.2127     631.070    -99999.0    -99999.0     7.49156     1.13929    -99999.0     1334.34     762.438     26.0065    -1033.91     15.2312     120.301     32.4484
     161.550    0.394000     15.7880     16.4249     631.143     15.6131     29.4264     7.48083    -99999.0     530.582     1332.62    -99999.0     41.8285    -1037.30     15.2559     120.000     29.1892
     161.650    0.393301     15.7880     15.0203     631.822     15.6135     29.2643     7.48263     1.14389     533.540     1331.41     752.572     38.2196    -99999.0     15.2559     120.699     38.2527
     161.749    0.393000     15.6362     14.8736     632.962    -99999.0    -99999.0     7.49445     1.14332    -99999.0     1331.31     749.996     37.9109    -1033.91     15.2559     121.000     42.1622
     161.849    0.393699     15.5708     13.0192     633.641     15.6140     28.8426     7.51668    -99999.0     541.354     1332.46    -99999.0     33.1799    -1037.30     15.2559     121.000     42.1622
     161.949    -99999.0    -99999.0    -99999.0     634.707     15.6141     28.7860     7.54549     1.13449     542.422     1334.91     737.748    -99999.0    -1034.86     15.1986     119.602     32.3416
     162.049    0.392000     15.7880     17.0000    -99999.0     15.6142     28.7054     7.57797     1.12795     543.950     1338.74     732.668     43.2570    -1044.09     15.1739     119.000     28.1081
     162.149    0.392699     15.7880    -99999.0     636.526     15.6140     28.6654     7.59997     1.12361     544.700     1341.71     729.855    -99999.0    -1046.94     15.1739     120.398     35.6637
     162.248    -99999.0    -99999.0     8.00000     636.526     15.6135     28.6782    -99999.0    -99999.0     544.437    -99999.0    -99999.0     20.4082    -1040.15     15.1739     121.000     38.9189
     162.348    0.395000     15.7880     10.7693     636.379     15.6129     28.7155     7.66358     1.09893     543.709     1352.47     715.649     27.4261    -1034.86     15.1739     121.000     38.9189
     162.448    0.395000     15.7880    -99999.0     635.167     15.6123     28.7688     7.68253     1.08923     542.683     1355.61     709.224    -99999.0    -1033.91     15.1165     119.602     32.1156
     162.548    0.395000     15.6361     5.00000     633.954     15.6120     28.8306     7.69971     1.08164     541.509     1356.77     702.296     12.7226    -1037.30     15.0919     119.000     29.1892
     162.648    0.397098     15.5708     6.66215     632.741     15.6124     28.8827     7.71633     1.07803     540.543     1356.06     698.012     16.9520    -1034.85     15.0919     119.000     29.1892
     162.747    0.398000     15.5708     8.00000     631.529     15.6130     28.9186     7.73434    -99999.0     539.893     1353.74    -99999.0     20.3562    -99999.0     15.0919     120.399     38.2625
     162.847    0.397300     15.5708    -99999.0     630.316    -99999.0    -99999.0     7.74991     1.06986    -99999.0     1349.44     681.030    -99999.0    -1038.25     15.0919     121.000     42.1622
     162.947    0.396300     15.7228     9.00000     629.177     15.6144     28.9413     7.75961     1.06814     539.521     1343.27     672.385     22.7848    -1034.85     15.1492     120.300     32.3298
     163.047    0.395300     15.7880     10.1089     628.645     15.6144     28.9354     7.76868     1.06758     539.630     1336.08     667.052     25.6312    -1033.91     15.1739     120.000     28.1081
     163.147    0.395000     15.7880     17.0981     628.645     15.6140     28.9513     7.78100    -99999.0     539.318     1329.12    -99999.0     43.1622    -1037.30     15.1739     120.000     28.1081
     163.246    0.394300     15.6360     17.0084     628.645     15.6133     29.0036     7.78870     1.07408     538.322     1325.31     642.054     43.0272    -1031.46     15.1739     120.700     37.9445
     163.346    -99999.0    -99999.0    -99999.0    -99999.0     15.6121     29.0944    -99999.0     1.08223     536.602    -99999.0     630.087    -99999.0    -1029.56     15.1739     121.000     42.1622
     163.446    0.394000     15.7880     9.00000    -99999.0     15.6104     29.2260     7.82596     1.09220     534.129     1309.32     617.178     22.7848    -1032.96     15.1739     119.600     35.3511
     163.546    0.394000     15.6359     13.9921     630.611     15.6084     29.3853    -99999.0     1.10384     531.166    -99999.0     604.508     35.3592    -1027.11     15.1739     119.000     32.4324
     163.646    0.394700     15.7229     14.6708     631.824     15.6061     29.5619     7.85988     1.11205     527.917     1293.02     597.565     37.1327    -1032.01     15.1739     119.000     32.4324
     163.745    0.394300     15.7880    -99999.0     633.110     15.6034     29.7666     7.85981    -99999.0     524.196     1288.97    -99999.0    -99999.0    -1037.30     15.2313     120.400     33.9463
     163.845    0.394000     15.7880     16.0000     634.855     15.6009     29.9583    -99999.0    -99999.0     520.758    -99999.0    -99999.0     40.4040    -99999.0     15.2559     121.000     34.5946
     163.945    0.392599     15.7880     15.4449     636.142    -99999.0    -99999.0     7.82698     1.14935    -99999.0     1272.55     570.061     39.0024    -1033.91     15.2559     119.599     32.3230
     164.045    0.392700     15.6358     16.1102     637.887     15.5944     30.5250     7.79266     1.15183     510.873     1265.45     565.125     40.7428    -99999.0     15.2559     119.000     31.3514
     164.145    0.393000     15.7230     16.4448     638.951    -99999.0    -99999.0     7.76511     1.14616    -99999.0     1260.98     559.758     41.5190    -1038.25     15.2559     119.000     31.3514
     164.244    0.392299     15.6358     17.6663    -99999.0     15.5886     30.9882    -99999.0     1.13365     503.049    -99999.0     553.300     44.6341    -1031.45     15.1984     121.102     37.4118
