#------------------------------------------------------------
~VERSION INFORMATION
VERS.               2.0  :CWLS LOG ASCII STANDARD - VERSION 2.0
WRAP.                NO  :ONE LINE PER DEPTH STEP
#------------------------------------------------------------
~WELL INFORMATION
STRT.FT         4.66420  :FIRST INDEX VALUE
STOP.FT         269.533  :LAST INDEX VALUE
STEP.FT         0.00000  :STEP
NULL.            -99999  :NULL VALUE
COMP.                    :
WELL. CARLTON (DARCY TW)  :WELL
FLD.                     :
LOC.                     :
SRVC.                    :
CTRY.               USA  :CTRY
STAT.         MINNESOTA  :STAT
CNTY.              RICE  :CNTY
DATE.        04/22/2025  :DATE
API.             886189  :API
#------------------------------------------------------------
~CURVE INFORMATION
DEPT.FT                  :DEPTH
TIME.SEC                 :Time
TCPU.'C                  :TCPU
COUNT.                   :COUNT
VSP.MV                   :VSP
VSPR.V                   :VSPR
I.MA                     :I
V16.V                    :V16
V64.V                    :V64
SPR.OHM                  :SPR
N16.OHM.M                :N16
N64.OHM.M                :N64
GAMMA.CPS                :Gamma
EHT.VOLTS                :EHT
SPEED.FT/MIN             :Speed
TOOLPOWERVOLTAGE.V       :ToolPowerVoltage
TOOLPOWERCURRENT.MA      :ToolPowerCurrent
#------------------------------------------------------------
~PARAMETER INFORMATION
CASB1.               27  :CASB1
CASB2.              270  :CASB2
CASB3.                   :CASB3
CASB4.                   :CASB4
CASB5.                   :CASB5
CASC1.     STEEL CASING  :CASC1
CASC2.        OPEN HOLE  :CASC2
CASC3.                   :CASC3
CASC4.                   :CASC4
CASC5.                   :CASC5
CASD1.               6"  :CASD1
CASD2.               6"  :CASD2
CASD3.                   :CASD3
CASD4.                   :CASD4
CASD5.                   :CASD5
CAST1.                0  :CAST1
CAST2.               27  :CAST2
CAST3.                   :CAST3
CAST4.                   :CAST4
CAST5.                   :CAST5
DRDP.               275  :DRDP
EGL.             948 L1  :EGL
FTYP.             WATER  :FTYP
LDIR.                UP  :LDIR
LMF.             GROUND  :LMF
LOTD.               269  :LOTD
MGSCUTTINGSNO.      N/A  :MGSCUTTINGSNO
RANG.                19  :RANG
RATE.            15 FPM  :RATE
RECB.             MAYER  :RECB
RMKS.                    :RMKS
RNGD.                 W  :RNGD
RUN.                  1  :RUN
SECT.                31  :SECT
STOP_FT.            269  :STOP.FT
STRT_FT.              8  :STRT.FT
SUBS.            CDCDBB  :SUBS
SWL.                 24  :SWL
TOOL. GAMMA (40-GRP-7082)  :TOOL
TOWN.               112  :TOWN
#------------------------------------------------------------
~OTHER
#------------------------------------------------------------
~A  DEPT[FT]        TIME        TCPU       COUNT         VSP        VSPR           I         V16         V64         SPR         N16         N64       GAMMA         EHT       SPEED  TOOLPOWERV  TOOLPOWERC
# ...
     196.280    0.392000     15.7880     13.2201     652.039     15.5181     44.8240     6.50599    -99999.0     346.221     648.734    -99999.0     33.5337    -1030.40     15.1739     121.000     41.0811
     196.380    0.394901     15.7880     15.2601     654.375     15.5127     45.6285     6.53434     1.30722     340.001     637.811     471.437     38.6332    -1029.56     15.1144     121.000     39.5127
     196.480    0.394549     15.6304     18.0615     655.926     15.5065     46.4721     6.55943     1.30770     333.697     630.369     472.354     45.8035    -1033.07     15.0919     121.000     38.9189
     196.580    0.396902     15.7284     18.0987    -99999.0     15.4996     47.3532    -99999.0     1.30966     327.344    -99999.0     473.710     45.8761    -1033.91     15.0919     121.000     38.9189
     196.679    0.398000     15.6304    -99999.0     659.225     15.4921     48.2937     6.67278     1.31308     320.815     607.667     475.730    -99999.0    -1033.91     15.0323     121.000     41.2725
     196.779    0.397274     15.7284     16.0000     660.776     15.4834     49.3306     6.69632     1.31763     313.902     602.968     478.501     40.5063    -1033.91     15.0098     121.000     42.1622
     196.879    0.397000     15.6303    -99999.0    -99999.0     15.4735     50.5082    -99999.0     1.32345     306.394    -99999.0     481.918    -99999.0    -1033.91     15.0694     121.000     42.1622
     196.979    0.398451     15.5708     13.0000     662.773     15.4645     51.5403    -99999.0     1.33032     300.069    -99999.0     485.756     33.0789    -1030.40     15.0919     121.000     41.3776
     197.079    0.396822     15.5708     13.0000     663.897     15.4533     52.7723     6.71222     1.33441     292.869     588.778     487.952     33.1771    -99999.0     15.0919     121.000     41.0811
     197.178    0.397452     15.7285     13.0000     664.593    -99999.0    -99999.0     6.67202    -99999.0    -99999.0     587.916    -99999.0     33.2976    -1038.25     15.1514     121.726     42.6510
     197.278    0.397274     15.6303     14.7421     665.715     15.4245     55.6778     6.61967     1.35283     277.031     587.831     499.050     37.6788    -1031.23     15.1739     122.000     43.2432
     197.378    0.396274     15.5708     16.0000     666.232     15.4165     56.4290     6.56370    -99999.0     273.221     587.782    -99999.0     40.8770    -99999.0     15.2334     122.000     43.2432
     197.478    0.393821     15.5708     12.5139     666.232    -99999.0    -99999.0     6.51318     1.35811    -99999.0     587.412     508.783     31.9293    -99999.0     15.2559     121.274     45.5989
     197.578    0.393000     15.5708     11.1618     666.142    -99999.0    -99999.0     6.47315     1.35729    -99999.0     586.408     510.644     28.3564    -1033.91     15.2559     121.000     46.4865
     197.677    -99999.0    -99999.0     11.4189     665.536     15.3985     58.2846     6.43794    -99999.0     264.195     584.464    -99999.0     28.9001    -1033.91     15.3751     119.547     37.8472
     197.777    0.391000     15.7880    -99999.0     664.929     15.4002     58.1668     6.41389     1.35052     264.761     581.875     519.783    -99999.0    -1033.91     15.4199     119.000     34.5946
     197.877    0.389547     15.7880     14.0000     664.413     15.4044     57.8168     6.39564     1.34863     266.437     578.890     524.962     35.1759    -1037.42     15.3604     119.000     34.5946
     197.977    -99999.0    -99999.0    -99999.0     664.503     15.4093     57.3491     6.38572     1.34751     268.698     577.040     531.111    -99999.0    -1034.74     15.3379     119.727     35.3801
     198.077    -99999.0    -99999.0     14.0000     665.019     15.4135     56.8707    -99999.0     1.34668     271.031    -99999.0     534.753     35.0877    -1033.91     15.3379     120.000     35.6757
     198.176    0.393000     15.5708     17.4880     664.929     15.4156     56.5292     6.34135    -99999.0     272.704     571.075    -99999.0     43.9028    -1033.91     15.2783     120.727     41.1753
     198.276    0.390819     15.7287    -99999.0     664.503     15.4156     56.3104    -99999.0     1.33296     273.761    -99999.0     548.507    -99999.0    -1033.91     15.2559     121.000     43.2432
     198.376    0.391454     15.7880     17.0000     665.110     15.4127     56.2513     6.26627     1.33072     273.998     564.928     551.910     42.7136    -1033.91     15.1963     121.000     43.2432
     198.476    0.392000     15.7880     18.1635     665.716     15.4075     56.3317     6.23672    -99999.0     273.514     563.156    -99999.0     45.6370    -1033.91     15.1739     120.273     44.0294
     198.576    0.393454     15.7880     16.6731     666.322     15.4003     56.4738     6.21362     1.30290     272.699     561.843     559.291     42.1149    -99999.0     15.1739     120.000     44.3243
     198.675    0.392546     15.7880     14.4180     667.019    -99999.0    -99999.0     6.19354     1.28836    -99999.0     560.933     561.320     36.5416    -1033.91     15.1739     119.273     37.2485
     198.775    0.394181     15.6301    -99999.0     668.051     15.3798     56.7094     6.17256     1.27567     271.205     560.334     563.008    -99999.0    -99999.0     15.1739     119.000     34.5946
     198.875    0.395000     15.5708     15.0000     667.960    -99999.0    -99999.0     6.14922     1.26640    -99999.0     559.720     564.290     38.3632    -1046.94     15.1739     119.000     34.5946
     198.975    0.394273     15.5708     15.5820     667.354     15.3603     56.6846     6.12541     1.26193     270.977     559.100     566.267     39.8517    -1043.42     15.1739     119.727     36.1675
     199.075    0.394728     15.5708    -99999.0     666.747     15.3549     56.6161     6.11230     1.26261     271.210     558.770     569.781    -99999.0    -1032.04     15.1739     120.000     36.7568
     199.174    -99999.0    -99999.0     12.0000     666.141     15.3484     56.5304    -99999.0     1.26469     271.507    -99999.0     572.081     30.6905    -1036.60     15.1739     120.000     36.7568
     199.274    0.395000     15.5708     13.7472     665.535     15.3434     56.4566     6.04503    -99999.0     271.773     557.492    -99999.0     35.1590    -1038.25     15.1739     120.728     43.8371
     199.374    -99999.0    -99999.0     8.59368     665.019     15.3404     56.3480    -99999.0     1.26826     272.244    -99999.0     580.400     21.9787    -1034.73     15.1739     121.000     46.4865
     199.474    0.393000     15.7880     9.82466     665.019     15.3391     56.2101     5.94497     1.26885     272.889     556.611     581.954     25.0209    -1033.91     15.2933     119.544     40.1914
     199.574    0.391544     15.6299     13.4174     665.110     15.3399     56.0523     5.91808    -99999.0     273.672     556.628    -99999.0     34.1410    -1033.91     15.3379     119.000     37.8378
     199.673    0.390272     15.7289     9.50339     665.626     15.3422     55.9039    -99999.0     1.25925     274.440    -99999.0     582.446     24.2081    -99999.0     15.2782     119.000     37.8378
     199.773    0.391456     15.7880     15.1570     665.535    -99999.0    -99999.0     5.80902     1.25554    -99999.0     558.687     581.639     38.5864    -1025.22     15.2559     120.456     38.6248
     199.873    0.391272     15.6298    -99999.0     665.019     15.3546     55.3766     5.76190     1.24977     277.277     560.430     580.395    -99999.0    -99999.0     15.2559     121.000     38.9189
     199.973    0.392457     15.5708     16.0000     665.019    -99999.0    -99999.0     5.71467     1.23895    -99999.0     562.790     577.642     40.5063    -1038.25     15.1364     121.000     43.6426
     200.073    0.393728     15.7290     17.7489    -99999.0     15.3694     54.7065     5.68551     1.22206     280.943     564.412     572.393     45.0766    -1038.25     15.0919     121.000     45.4054
     200.172    0.395457     15.6298    -99999.0     665.019     15.3746     54.4099    -99999.0     1.19896     282.574    -99999.0     564.558    -99999.0    -99999.0     15.0919     121.000     45.4054
