#------------------------------------------------------------
~VERSION INFORMATION
VERS.               2.0  :CWLS LOG ASCII STANDARD - VERSION 2.0
WRAP.                NO  :ONE LINE PER DEPTH STEP
#------------------------------------------------------------
~WELL INFORMATION
STRT.FT         4.66420  :FIRST INDEX VALUE
STOP.FT         269.533  :LAST INDEX VALUE
STEP.FT         0.00000  :STEP
NULL.            -99999  :NULL VALUE
COMP.                    :
WELL. CARLTON (DARCY TW)  :WELL
FLD.                     :
LOC.                     :
SRVC.                    :
CTRY.               USA  :CTRY
STAT.         MINNESOTA  :STAT
CNTY.              RICE  :CNTY
DATE.        04/22/2025  :DATE
API.             886189  :API
#------------------------------------------------------------
~CURVE INFORMATION
DEPT.FT                  :DEPTH
TIME.SEC                 :Time
TCPU.'C                  :TCPU
COUNT.                   :COUNT
VSP.MV                   :VSP
VSPR.V                   :VSPR
I.MA                     :I
V16.V                    :V16
V64.V                    :V64
SPR.OHM                  :SPR
N16.OHM.M                :N16
N64.OHM.M                :N64
GAMMA.CPS                :Gamma
EHT.VOLTS                :EHT
SPEED.FT/MIN             :Speed
TOOLPOWERVOLTAGE.V       :ToolPowerVoltage
TOOLPOWERCURRENT.MA      :ToolPowerCurrent
#------------------------------------------------------------
~PARAMETER INFORMATION
CASB1.               27  :CASB1
CASB2.              270  :CASB2
CASB3.                   :CASB3
CASB4.                   :CASB4
CASB5.                   :CASB5
CASC1.     STEEL CASING  :CASC1
CASC2.        OPEN HOLE  :CASC2
CASC3.                   :CASC3
CASC4.                   :CASC4
CASC5.                   :CASC5
CASD1.               6"  :CASD1
CASD2.               6"  :CASD2
CASD3.                   :CASD3
CASD4.                   :CASD4
CASD5.                   :CASD5
CAST1.                0  :CAST1
CAST2.               27  :CAST2
CAST3.                   :CAST3
CAST4.                   :CAST4
CAST5.                   :CAST5
DRDP.               275  :DRDP
EGL.             948 L1  :EGL
FTYP.             WATER  :FTYP
LDIR.                UP  :LDIR
LMF.             GROUND  :LMF
LOTD.               269  :LOTD
MGSCUTTINGSNO.      N/A  :MGSCUTTINGSNO
RANG.                19  :RANG
RATE.            15 FPM  :RATE
RECB.             MAYER  :RECB
RMKS.                    :RMKS
RNGD.                 W  :RNGD
RUN.                  1  :RUN
SECT.                31  :SECT
STOP_FT.            269  :STOP.FT
STRT_FT.              8  :STRT.FT
SUBS.            CDCDBB  :SUBS
SWL.                 24  :SWL
TOOL. GAMMA (40-GRP-7082)  :TOOL
TOWN.               112  :TOWN
#------------------------------------------------------------
~OTHER
#------------------------------------------------------------
~A  DEPT[FT]        TIME        TCPU       COUNT         VSP        VSPR           I         V16         V64         SPR         N16         N64       GAMMA         EHT       SPEED  TOOLPOWERV  TOOLPOWERC
# ...
     76.5202    0.398000     15.7880     5.51235     591.697     15.3211     52.2303     5.52984     1.62432     293.355     477.220     456.209     13.9710    -1030.80     14.8541     120.633     38.5915
     76.6200    0.399899     15.6505     5.00000     592.337     15.3220     52.9826    -99999.0    -99999.0     289.200    -99999.0    -99999.0     12.6904    -1029.56     14.7638     121.000     42.1622
     76.7198    0.404166     15.5708    -99999.0     593.549     15.3259     53.6781     5.75010     1.63092     285.527     466.143     464.390    -99999.0    -1029.56     14.7638     121.000     42.1622
     76.8196    0.404734     15.7083     5.46369     594.762     15.3299     54.4823     5.81696     1.61772     281.391     461.217     463.337     13.8893    -1032.67     14.8157     121.000     42.1622
     76.9194    0.403367     15.7880     7.00000     595.974     15.3314     55.5417     5.86701     1.59218     276.062     456.103     459.856     17.7677    -1030.80     14.8458     121.000     42.1622
     77.0192    0.401100     15.7880     6.51198     597.187     15.3288     56.9110     5.90980     1.55052     269.390     451.158     454.974     16.4860    -1032.67     14.7939     121.633     44.9009
     77.1190    0.402534     15.7880     6.48809     598.366     15.3219     58.5435     5.95018     1.50962     261.773     446.408     450.790     16.4255    -99999.0     14.7638     122.000     46.4865
     77.2188    0.404634     15.9256     7.00000     598.939    -99999.0    -99999.0     5.98374    -99999.0    -99999.0     442.153    -99999.0     17.7215    -1033.91     14.7638     122.000     46.4865
     77.3186    0.405000     15.8676    -99999.0    -99999.0     15.2977     62.5672     6.00364     1.28623     244.501     438.688     433.100    -99999.0    -1037.01     14.9197     120.733     45.1166
     77.4184    0.404366     15.6503     11.9300     601.431     15.2926     63.4857     6.00709     1.19183     240.913     434.710     428.117     30.2382    -1035.14     15.0098     120.000     44.3243
     77.5182    0.404000     15.7084     12.5580     602.610     15.2864     64.8506     5.97243     1.10984     235.741     430.346     425.674     31.9542    -1033.91     15.1138     119.366     38.8433
     77.6180    0.399563     15.7880     11.4654     603.250     15.2837     66.1004     5.89135     1.04240     231.237     424.851     425.805     29.1330    -1033.91     15.1739     119.000     35.6757
     77.7178    -99999.0    -99999.0     11.5342     604.463     15.2839     67.2939     5.77195     1.00485     227.138     417.908     427.248     29.3380    -1030.79     15.1739     119.000     35.6757
     77.8176    0.394000     15.7880     10.0000     605.641     15.2865     68.4587     5.62795    -99999.0     223.309     409.491    -99999.0     25.5102    -1029.56     15.1739     120.268     39.1024
     77.9174    0.394000     15.6503    -99999.0     606.282     15.2896     69.3731     5.52102    0.929054     220.403     402.903     438.005    -99999.0    -1035.78     15.1739     121.000     41.0811
     78.0172    0.394634     15.7085     13.9107     607.494     15.2934     70.1558    -99999.0    -99999.0     217.999    -99999.0    -99999.0     35.4294    -1035.14     15.1739     121.000     46.5654
     78.1170    0.395634     15.7880     18.0000     608.707     15.2975     70.7137     5.26907    0.863278     216.332     379.060     448.209     45.8587    -1018.35     15.1739     121.000     49.7297
     78.2168    0.392828     15.7880     18.0000     609.919     15.3007     70.8831     5.20786    0.845192     215.859     369.719     449.434     45.9184    -1024.63     15.1739     121.000     49.7297
     78.3166    0.392903     15.7880     16.5329     611.132     15.3024     70.7349     5.13780    -99999.0     216.335     361.617    -99999.0     42.1282    -1032.67     15.2780     120.366     42.1856
     78.4164    0.392731     15.7880     15.0000     612.344     15.3022     70.4113     5.05239    0.787514     217.327     354.647     448.606     38.1679    -1033.91     15.3379     120.000     37.8378
     78.5162    0.392635     15.7880    -99999.0     613.523     15.2998     70.0899     4.98959    0.770642     218.289     350.345     449.008    -99999.0    -99999.0     15.2338     120.635     45.3842
     78.6160    0.391731     15.7880     24.0000     614.163    -99999.0    -99999.0    -99999.0    0.760144    -99999.0    -99999.0     451.272     60.7595    -1033.91     15.1739     121.000     49.7297
     78.7158    0.390365     15.7880    -99999.0     615.342     15.2832     70.6884     4.77986    0.755840     216.205     340.181     455.079    -99999.0    -1030.79     15.1739     121.000     49.7297
     78.8156    0.392539     15.7880     26.0000     615.948     15.2763     71.3363     4.71524    0.756702     214.155     337.532     460.209     65.5721    -1035.79     15.1739     121.000     44.2398
     78.9154    0.394635     15.7880     26.0000     616.554     15.2669     72.1940     4.65983    0.758834     211.476     336.327     464.708     65.6566    -1044.48     15.1739     121.000     41.0811
     79.0152    0.394365     15.7880    -99999.0     617.161     15.2608     72.6578     4.59124    -99999.0     210.038     336.485    -99999.0    -99999.0    -1034.48     15.1739     121.000     41.0811
     79.1150    -99999.0    -99999.0     35.9172     617.732     15.2576     72.7450     4.51735    0.769779     209.741     337.233     480.280     90.8253    -99999.0     15.1739     120.365     45.8865
     79.2148    0.394000     15.7880     33.1440     617.732    -99999.0    -99999.0    -99999.0    0.770797    -99999.0    -99999.0     484.393     83.9088    -1029.56     15.1739     120.000     48.6486
     79.3146    0.393365     15.7880     31.3876     617.732     15.2563     71.8686     4.10291    0.769510     212.281     344.634     487.202     79.6957    -1029.56     15.1739     119.365     41.7824
     79.4144    0.394271     15.7880     30.1414     617.732     15.2558     71.6335     3.89837    0.767580     212.971     349.273     489.582     76.7687    -1029.56     15.1739     119.000     37.8378
     79.5142    0.395000     15.7880     24.9599     617.698     15.2558     71.1720     3.70822    0.766275     214.353     354.758     491.887     63.7594    -1029.56     15.1218     119.000     37.8378
     79.6140    0.395000     15.7880     27.0000     617.126     15.2581     70.5065     3.55038    0.765982     216.413     361.783     494.299     69.0537    -1029.56     15.0919     120.271     40.5854
     79.7138    -99999.0    -99999.0    -99999.0     617.091     15.2663     69.0784     3.45895    0.766821     221.036     367.673     496.814    -99999.0    -99999.0     15.0919     121.000     42.1622
     79.8136    0.397000     15.7880     22.5293     616.485    -99999.0    -99999.0    -99999.0    0.767556    -99999.0    -99999.0     498.567     57.8482    -1033.91     15.1961     121.000     42.1622
     79.9134    0.394457     15.7880     23.9421     615.844     15.3147     61.9580     3.31152    0.767854     247.179     390.306     499.345     61.3031    -1033.91     15.2559     121.000     42.1622
     80.0132    0.393000     15.7880     22.0966     614.596     15.3316     59.5330    -99999.0    -99999.0     257.782    -99999.0    -99999.0     56.4045    -1033.91     15.2559     121.000     42.1622
     80.1130    0.393636     15.7880     15.5288     612.708     15.3579     55.7738     3.29399    0.767784     275.647     427.070     501.985     39.4691    -1027.67     15.2559     121.000     43.5368
     80.2128    0.392728     15.7880     15.4716     609.711     15.3823     52.2679     3.31376    0.764928     294.587     440.526     501.964     39.2144    -1031.46     15.2559     121.000     44.3243
     80.3126    -99999.0    -99999.0     15.5282     607.251     15.4037     49.1387    -99999.0    0.759690     313.744    -99999.0     500.595     39.1809    -99999.0     15.2559     121.000     44.3243
     80.4124    0.392000     15.7880     11.5467     604.220    -99999.0    -99999.0     3.54115    0.750403    -99999.0     504.005     496.976     29.0398    -1033.91     15.2559     121.000     44.3243
