#------------------------------------------------------------
~VERSION INFORMATION
VERS.               2.0  :CWLS LOG ASCII STANDARD - VERSION 2.0
WRAP.                NO  :ONE LINE PER DEPTH STEP
#------------------------------------------------------------
~WELL INFORMATION
STRT.FT         4.66420  :FIRST INDEX VALUE
STOP.FT         269.533  :LAST INDEX VALUE
STEP.FT         0.00000  :STEP
NULL.            -99999  :NULL VALUE
COMP.                    :
WELL. CARLTON (DARCY TW)  :WELL
FLD.                     :
LOC.                     :
SRVC.                    :
CTRY.               USA  :CTRY
STAT.         MINNESOTA  :STAT
CNTY.              RICE  :CNTY
DATE.        04/22/2025  :DATE
API.             886189  :API
#------------------------------------------------------------
~CURVE INFORMATION
DEPT.FT                  :DEPTH
TIME.SEC                 :Time
TCPU.'C                  :TCPU
COUNT.                   :COUNT
VSP.MV                   :VSP
VSPR.V                   :VSPR
I.MA                     :I
V16.V                    :V16
V64.V                    :V64
SPR.OHM                  :SPR
N16.OHM.M                :N16
N64.OHM.M                :N64
GAMMA.CPS                :Gamma
EHT.VOLTS                :EHT
SPEED.FT/MIN             :Speed
TOOLPOWERVOLTAGE.V       :ToolPowerVoltage
TOOLPOWERCURRENT.MA      :ToolPowerCurrent
#------------------------------------------------------------
~PARAMETER INFORMATION
CASB1.               27  :CASB1
CASB2.              270  :CASB2
CASB3.                   :CASB3
CASB4.                   :CASB4
CASB5.                   :CASB5
CASC1.     STEEL CASING  :CASC1
CASC2.        OPEN HOLE  :CASC2
CASC3.                   :CASC3
CASC4.                   :CASC4
CASC5.                   :CASC5
CASD1.               6"  :CASD1
CASD2.               6"  :CASD2
CASD3.                   :CASD3
CASD4.                   :CASD4
CASD5.                   :CASD5
CAST1.                0  :CAST1
CAST2.               27  :CAST2
CAST3.                   :CAST3
CAST4.                   :CAST4
CAST5.                   :CAST5
DRDP.               275  :DRDP
EGL.             948 L1  :EGL
FTYP.             WATER  :FTYP
LDIR.                UP  :LDIR
LMF.             GROUND  :LMF
LOTD.               269  :LOTD
MGSCUTTINGSNO.      N/A  :MGSCUTTINGSNO
RANG.                19  :RANG
RATE.            15 FPM  :RATE
RECB.             MAYER  :RECB
RMKS.                    :RMKS
RNGD.                 W  :RNGD
RUN.                  1  :RUN
SECT.                31  :SECT
STOP_FT.            269  :STOP.FT
STRT_FT.              8  :STRT.FT
SUBS.            CDCDBB  :SUBS
SWL.                 24  :SWL
TOOL. GAMMA (40-GRP-7082)  :TOOL
TOWN.               112  :TOWN
#------------------------------------------------------------
~OTHER
#------------------------------------------------------------
~A  DEPT[FT]        TIME        TCPU       COUNT         VSP        VSPR           I         V16         V64         SPR         N16         N64       GAMMA         EHT       SPEED  TOOLPOWERV  TOOLPOWERC
# ...
     180.312    0.395000     15.5708     16.8647     652.894     15.4780     39.6539     6.15620    0.824898     390.328     832.813     509.988     42.8037    -1033.91     15.0098     120.000     43.2432
     180.412    0.396426     15.7257     10.3215     652.894     15.4850     39.4818     6.17680    -99999.0     392.209     843.933    -99999.0     26.2632    -1030.45     15.0683     120.000     43.2432
     180.512    0.397000     15.7880     12.8141     652.894     15.4922     39.2730     6.20314    0.858390     394.477     855.696     527.213     32.7728    -99999.0     15.0919     120.000     43.2432
     180.612    0.398427     15.7880     19.1361     652.977    -99999.0    -99999.0     6.22762    0.870899    -99999.0     867.597     533.284     49.0159    -1033.91     15.0919     120.713     43.2432
     180.711    0.396860     15.6331     17.7281     653.501     15.5039     38.6273     6.24972    0.882427     401.371     879.028     538.792     45.4567    -1033.91     15.2089     121.000     43.2432
     180.811    0.394573     15.5708     13.1592     653.501     15.5071     38.3739     6.26477    0.895778     404.112     886.014     544.959     33.7826    -1033.91     15.2559     121.000     37.8442
     180.911    0.394713     15.7257     13.2724    -99999.0     15.5121     38.0057    -99999.0    0.908776     408.160    -99999.0     551.003     34.1192    -1033.91     15.2559     121.000     35.6757
     181.011    0.394286     15.7880    -99999.0     654.189     15.5174     37.6241     6.30532    0.922029     412.441     912.033     557.251    -99999.0    -1030.45     15.2559     121.000     35.6757
     181.111    -99999.0    -99999.0     12.0000     654.795     15.5221     37.2621     6.31942    0.936118     416.573     923.074     563.735     30.6905    -1033.02     15.2559     120.286     31.8179
     181.210    0.393000     15.7880     14.2742     655.402     15.5262     36.9019     6.33577    0.950756     420.751     934.436     570.116     36.5068    -1030.45     15.2559     120.000     30.2703
     181.310    0.392286     15.6330     14.2946     656.008     15.5297     36.5378     6.35448    0.959310     425.039     946.094     573.649     36.4628    -1029.56     15.2559     119.286     35.6719
     181.410    0.392714     15.7259     14.1372     656.614     15.5323     36.2033     6.38241    -99999.0     429.037     957.965    -99999.0     35.8626    -99999.0     15.2559     119.000     37.8378
     181.510    0.393000     15.7880     13.2940     657.221    -99999.0    -99999.0     6.41553     1.00208    -99999.0     968.646     588.668     33.6120    -1029.56     15.2559     119.000     37.8378
     181.610    0.391572     15.7880     11.4313     657.827     15.5362     35.4411     6.45344     1.02032     438.366     978.478     593.935     28.7875    -1029.56     15.2559     120.428     39.3818
     181.709    0.391714     15.7880     16.1192     658.351     15.5372     35.1909     6.50146     1.03825     441.522     989.876     598.916     40.3575    -1033.02     15.1388     121.000     40.0000
     181.809    0.394142     15.7880     16.5877     658.351     15.5384     34.8532     6.54868     1.05395     445.834     1001.00     603.149     41.5190    -1030.45     15.0919     121.000     40.0000
     181.909    0.393571     15.6328     15.1377     658.433     15.5395     34.5143     6.59213     1.06504     450.242     1011.54     605.434     37.9391    -1033.02     15.0919     119.571     33.0502
     182.009    -99999.0    -99999.0    -99999.0     659.039     15.5406     34.2023     6.63335     1.06947     454.381     1021.48     605.923    -99999.0    -1033.91     15.0919     119.000     30.2703
     182.109    0.397000     15.5708     11.0000     659.646     15.5422     33.9468     6.67747    -99999.0     457.843     1030.81    -99999.0     27.9898    -1037.37     15.0919     119.000     30.2703
     182.208    0.399143     15.7260     8.15450     660.252     15.5437     33.7779     6.72304     1.07328     460.175     1039.04     603.260     20.7494    -1038.25     15.0333     119.000     30.2703
     182.308    0.397856     15.7880     12.8307     660.858     15.5455     33.6354     6.75274    -99999.0     462.180     1043.71    -99999.0     32.6481    -1031.33     15.0098     119.000     30.2703
     182.408    0.398429     15.6328     14.5842     661.382     15.5478     33.4978    -99999.0     1.07240     464.145    -99999.0     598.075     37.1989    -1036.48     15.1271     120.429     38.7690
     182.508    0.396856     15.7260     17.1242    -99999.0     15.5503     33.3687     6.87926     1.07137     466.015     1056.45     597.017     43.7958    -1038.25     15.1739     121.000     42.1622
     182.608    0.396000     15.6328     19.2917     663.449     15.5528     33.2384     6.92251     1.07002     467.920     1059.83     596.334     49.3395    -1034.79     15.1739     120.285     35.2083
     182.707    0.394570     15.5708    -99999.0     665.185     15.5554     33.1326     6.95883     1.06890     469.489     1062.39     596.429    -99999.0    -1030.44     15.2912     120.000     32.4324
     182.807    0.394000     15.5708     10.0000     666.481     15.5583     33.0630     6.99859     1.06815     470.565     1064.59     597.628     25.5102    -1033.02     15.3379     120.000     32.4324
     182.907    0.391855     15.5708    -99999.0     668.134     15.5616     33.0431     7.03274     1.06963     470.949     1066.15     600.225    -99999.0    -99999.0     15.3379     121.430     39.3899
     183.007    0.391000     15.7261     11.0000     668.823    -99999.0    -99999.0     7.06329     1.07363    -99999.0     1067.37     603.912     27.9188    -1038.25     15.3379     122.000     42.1622
     183.107    0.390285     15.7880     9.29044     669.952     15.5688     33.2103     7.09237     1.07844     468.793     1067.94     607.852     23.5214    -1034.79     15.3379     122.000     42.1622
     183.206    0.390000     15.6326     12.5588     670.476     15.5703     33.2943     7.12114     1.08205     467.659     1067.76     610.944     31.6562    -1030.44     15.3966     122.000     42.1622
     183.306    0.389285     15.5708     18.2802     670.559     15.5717     33.3831     7.13866     1.08302     466.457     1067.19     612.646     46.0458    -1033.03     15.4199     122.000     42.1622
     183.406    0.389000     15.5708     13.1603     671.082     15.5724     33.4921    -99999.0     1.08067     464.958    -99999.0     613.121     33.1783    -1033.91     15.4199     119.854     32.8823
     183.506    -99999.0    -99999.0     8.57017     671.165     15.5722     33.6138     7.21540     1.07843     463.269     1060.08     613.183     21.5767    -1033.91     15.3613     119.000     29.1892
     183.606    0.391000     15.7880     7.85954     671.771     15.5716     33.7220     7.25175    -99999.0     461.764     1055.76    -99999.0     19.7729    -1030.44     15.3379     120.431     38.4719
     183.705    0.391000     15.7880     17.2641     672.294     15.5710     33.8337     7.28588     1.06696     460.222     1051.11     612.860     43.4864    -1033.03     15.1618     121.000     42.1622
     183.805    0.392431     15.7880     18.1564     672.378     15.5703     33.9599     7.31051     1.06165     458.492     1046.24     612.694     45.8286    -1030.44     15.0919     121.000     42.1622
     183.905    0.394432     15.7880     11.8589     672.901     15.5697     34.1145     7.32310     1.05662     456.397     1040.98     612.821     30.1034    -99999.0     15.0919     120.284     33.6496
     184.005    0.395716     15.6325     14.9934     672.984    -99999.0    -99999.0     7.32590     1.05363    -99999.0     1037.65     613.398     38.1510    -1033.91     15.0332     120.000     30.2703
     184.105    0.397432     15.5708     12.8646     673.590     15.5689     34.6440    -99999.0     1.05253     449.399    -99999.0     614.206     32.7676    -1033.91     15.0098     120.000     30.2703
     184.204    0.399432     15.7263    -99999.0     674.197     15.5685     34.8637     7.28583     1.05238     446.561     1023.79     615.266    -99999.0    -1037.37     15.0686     120.000     36.4631
