#------------------------------------------------------------
~VERSION INFORMATION
VERS.               2.0  :CWLS LOG ASCII STANDARD - VERSION 2.0
WRAP.                NO  :ONE LINE PER DEPTH STEP
#------------------------------------------------------------
~WELL INFORMATION
STRT.FT         4.66420  :FIRST INDEX VALUE
STOP.FT         269.533  :LAST INDEX VALUE
STEP.FT         0.00000  :STEP
NULL.            -99999  :NULL VALUE
COMP.                    :
WELL. CARLTON (DARCY TW)  :WELL
FLD.                     :
LOC.                     :
SRVC.                    :
CTRY.               USA  :CTRY
STAT.         MINNESOTA  :STAT
CNTY.              RICE  :CNTY
DATE.        04/22/2025  :DATE
API.             886189  :API
#------------------------------------------------------------
~CURVE INFORMATION
DEPT.FT                  :DEPTH
TIME.SEC                 :Time
TCPU.'C                  :TCPU
COUNT.                   :COUNT
VSP.MV                   :VSP
VSPR.V                   :VSPR
I.MA                     :I
V16.V                    :V16
V64.V                    :V64
SPR.OHM                  :SPR
N16.OHM.M                :N16
N64.OHM.M                :N64
GAMMA.CPS                :Gamma
EHT.VOLTS                :EHT
SPEED.FT/MIN             :Speed
TOOLPOWERVOLTAGE.V       :ToolPowerVoltage
TOOLPOWERCURRENT.MA      :ToolPowerCurrent
#------------------------------------------------------------
~PARAMETER INFORMATION
CASB1.               27  :CASB1
CASB2.              270  :CASB2
CASB3.                   :CASB3
CASB4.                   :CASB4
CASB5.                   :CASB5
CASC1.     STEEL CASING  :CASC1
CASC2.        OPEN HOLE  :CASC2
CASC3.                   :CASC3
CASC4.                   :CASC4
CASC5.                   :CASC5
CASD1.               6"  :CASD1
CASD2.               6"  :CASD2
CASD3.                   :CASD3
CASD4.                   :CASD4
CASD5.                   :CASD5
CAST1.                0  :CAST1
CAST2.               27  :CAST2
CAST3.                   :CAST3
CAST4.                   :CAST4
CAST5.                   :CAST5
DRDP.               275  :DRDP
EGL.             948 L1  :EGL
FTYP.             WATER  :FTYP
LDIR.                UP  :LDIR
LMF.             GROUND  :LMF
LOTD.               269  :LOTD
MGSCUTTINGSNO.      N/A  :MGSCUTTINGSNO
RANG.                19  :RANG
RATE.            15 FPM  :RATE
RECB.             MAYER  :RECB
RMKS.                    :RMKS
RNGD.                 W  :RNGD
RUN.                  1  :RUN
SECT.                31  :SECT
STOP_FT.            269  :STOP.FT
STRT_FT.              8  :STRT.FT
SUBS.            CDCDBB  :SUBS
SWL.                 24  :SWL
TOOL. GAMMA (40-GRP-7082)  :TOOL
TOWN.               112  :TOWN
#------------------------------------------------------------
~OTHER
#------------------------------------------------------------
~A  DEPT[FT]        TIME        TCPU       COUNT         VSP        VSPR           I         V16         V64         SPR         N16         N64       GAMMA         EHT       SPEED  TOOLPOWERV  TOOLPOWERC
# ...
     228.216    0.390750     15.6250     13.3953     670.977     15.5139     38.2709    -99999.0    0.991051     405.370    -99999.0     560.452     33.8767    -1036.79     15.3379     121.000     44.3243
     228.316    0.389500     15.5708     11.7908     670.476     15.5141     38.1724     6.58891    0.993533     406.423     897.584     559.811     29.7231    -1034.64     15.3994     121.000     41.0814
     228.416    0.390500     15.5708     13.4199     670.476     15.5146     38.1034     6.61810    0.996790     407.172     902.851     559.224     33.7183    -1030.29     15.4199     121.000     40.0000
     228.516    0.388750     15.5708     11.9764     670.476     15.5162     38.0215    -99999.0     1.00107     408.091    -99999.0     558.884     30.0915    -1033.18     15.2969     120.250     35.1343
     228.615    0.388750     15.7338     15.4447     670.476     15.5189     37.9118     6.70529     1.00595     409.342     920.124     558.894     38.8058    -1033.91     15.2559     120.000     33.5135
     228.715    0.389750     15.6250     16.5795     670.476     15.5221     37.7902    -99999.0     1.00864     410.747    -99999.0     558.971     41.5999    -99999.0     15.2559     120.000     33.5135
     228.815    0.391501     15.5708     13.7896     670.476    -99999.0    -99999.0     6.74978    -99999.0    -99999.0     936.379    -99999.0     34.6099    -1038.25     15.1328     119.250     31.0797
     228.915    0.394251     15.5708     13.6052     670.371     15.5318     37.5274     6.74477     1.01895     413.879     940.740     558.102     34.3456    -1038.25     15.0919     119.000     30.2703
     229.015    0.395751     15.5708     11.5791     669.765     15.5356     37.4586     6.73111     1.02353     414.742     943.742     557.974     29.3143    -99999.0     15.0303     119.000     30.2703
     229.114    0.396751     15.5708     22.7127     669.158    -99999.0    -99999.0     6.71732     1.02977    -99999.0     945.916     557.861     57.8642    -1029.56     15.0098     119.000     33.5165
     229.214    0.397751     15.5708     27.3672     668.552     15.5470     37.2166     6.70951     1.03680     417.743     947.859     557.822     70.0123    -99999.0     15.0098     119.000     34.5946
     229.314    -99999.0    -99999.0     17.7344     667.946    -99999.0    -99999.0     6.70916     1.04432    -99999.0     949.991     557.867     45.5247    -1033.91     15.1330     120.501     40.2755
     229.414    0.399000     15.5708    -99999.0     667.340     15.5544     36.8945     6.71430     1.05289     421.593     952.475     557.769    -99999.0    -1033.91     15.1739     121.000     42.1622
     229.514    0.397498     15.5708     14.0000     666.838     15.5560     36.7485     6.72295     1.06092     423.313     955.070     557.222     35.8056    -1033.91     15.2971     121.000     42.1622
     229.613    -99999.0    -99999.0     21.2674     666.733     15.5575     36.5484     6.73097     1.06639     425.670     957.304     555.674     54.7038    -1033.91     15.3379     119.498     34.0439
     229.713    0.391000     15.5708     22.9702     666.232     15.5582     36.3669     6.73689     1.06708     427.813     959.172     552.949     59.2014    -1037.53     15.3379     119.000     31.3514
     229.813    -99999.0    -99999.0     14.9428     666.127     15.5585     36.2218     6.74407     1.06266     429.536     960.686     549.121     38.4243    -1034.63     15.2763     119.000     31.3514
     229.913    0.390000     15.5708     11.6060     665.521     15.5588     36.1205     6.75440     1.05484     430.747     961.336     544.395     29.6166    -1030.28     15.2559     119.000     31.3514
     230.013    0.391503     15.5708     12.0000     665.019     15.5592     36.0430     6.76694     1.04542     431.686     961.560     539.142     30.5816    -1033.18     15.2559     119.000     31.3514
     230.112    0.392000     15.5708     12.0000    -99999.0     15.5601     35.9820     6.78154     1.03702     432.441     961.660     534.050     30.4248    -1033.91     15.2559     120.503     40.2874
     230.212    0.392000     15.5708     12.6062     664.308     15.5612     35.9346     6.79937     1.03149     433.042     961.416     529.284     31.7838    -1033.91     15.2559     121.000     43.2432
     230.312    0.392000     15.5708     13.6062     663.807     15.5622     35.8960     6.81840     1.02881     433.535     960.616     524.880     34.2189    -1030.28     15.1326     121.000     40.8055
     230.412    0.395758     15.5708     17.6373     663.912     15.5631     35.8562     6.83727     1.02906     434.043     959.158     521.281     44.4687    -1033.18     15.0919     121.000     40.0000
     230.512    0.395497     15.5708     15.7554     664.518     15.5638     35.8558     6.85362     1.03289     434.066     956.767     518.906     39.6367    -1033.91     15.0919     121.000     40.0000
     230.611    0.395752     15.5708     13.0000     665.125     15.5641     35.9004     6.86213     1.04041     433.536     953.313     518.007     32.6810    -1037.53     15.0919     121.000     36.7494
     230.711    0.395248     15.5708     20.8841     665.731     15.5642     35.9611     6.86393     1.05172     432.807     950.966     519.139     52.6048    -1038.25     15.0919     121.000     35.6757
     230.811    0.397256     15.5708     24.1806     666.443     15.5641     36.0440    -99999.0     1.06525     431.808    -99999.0     521.630     61.2659    -1045.50     15.0302     121.000     35.6757
     230.911    0.398000     15.5708     17.5381     667.550     15.5638     36.1592     6.84863     1.07784     430.425     937.954     523.829     44.7369    -1036.07     15.0098     119.496     32.4229
     231.011    0.398000     15.5708     10.9664     668.261     15.5633     36.2965     6.83487     1.08732     428.784     931.708     525.205     28.0470    -1037.53     15.0098     119.000     31.3514
     231.110    0.398000     15.7342     13.2488     669.369     15.5625     36.4632     6.82562     1.09225     426.802     924.705     525.743     33.7580    -1038.25     15.0715     119.000     31.3514
     231.210    0.398752     15.6246     9.32330     669.869     15.5617     36.6441     6.82233     1.09341     424.675     917.884     525.296     23.7828    -1020.12     15.0919     119.000     31.3514
     231.310    0.398248     15.5708     11.6767    -99999.0     15.5610     36.8186     6.81845     1.09267     422.642     910.903     524.137     29.6875    -99999.0     15.1536     119.000     31.3514
     231.410    0.395743     15.5708     17.8214     670.581    -99999.0    -99999.0     6.81232     1.09119    -99999.0     902.537     522.905     45.3064    -1029.56     15.1739     121.257     39.4859
     231.510    0.395000     15.5708     17.7856     671.187     15.5591     37.2245     6.80866     1.08894     417.980     894.344     521.582     45.1229    -1029.56     15.1739     122.000     42.1622
     231.609    0.392742     15.7343     21.2506     671.899     15.5585     37.3421     6.80434     1.08598     416.649     886.656     520.139     53.7989    -1036.81     15.3591     121.247     38.9075
     231.709    0.390495     15.6245     19.1422     672.901     15.5575     37.5311     6.78933     1.08210     414.526     879.677     518.307     48.5237    -1034.62     15.4199     121.000     37.8378
     231.809    0.389247     15.5708     17.8217    -99999.0     15.5563     37.7902     6.75895     1.07673     411.653     873.208     516.063     45.0114    -1037.53     15.4199     121.000     37.8378
     231.909    -99999.0    -99999.0     17.7847     675.537     15.5551     38.0382     6.71802     1.07089     408.936     866.808     514.110     44.6027    -1034.62     15.4199     120.247     32.1399
     232.009    0.391000     15.5708     15.7851     676.750     15.5540     38.3331     6.67149     1.06624     405.763     860.168     513.086     39.4626    -1030.28     15.4199     120.000     30.2703
     232.108    0.388741     15.5708     19.8618     677.963     15.5529     38.6574     6.62613     1.06327     402.333     853.178     513.004     50.0075    -1022.30     15.2964     120.000     36.7839
