#------------------------------------------------------------
~VERSION INFORMATION
VERS.               2.0  :CWLS LOG ASCII STANDARD - VERSION 2.0
WRAP.                NO  :ONE LINE PER DEPTH STEP
#------------------------------------------------------------
~WELL INFORMATION
STRT.FT         4.66420  :FIRST INDEX VALUE
STOP.FT         269.533  :LAST INDEX VALUE
STEP.FT         0.00000  :STEP
NULL.            -99999  :NULL VALUE
COMP.                    :
WELL. CARLTON (DARCY TW)  :WELL
FLD.                     :
LOC.                     :
SRVC.                    :
CTRY.               USA  :CTRY
STAT.         MINNESOTA  :STAT
CNTY.              RICE  :CNTY
DATE.        04/22/2025  :DATE
API.             886189  :API
#------------------------------------------------------------
~CURVE INFORMATION
DEPT.FT                  :DEPTH
TIME.SEC                 :Time
TCPU.'C                  :TCPU
COUNT.                   :COUNT
VSP.MV                   :VSP
VSPR.V                   :VSPR
I.MA                     :I
V16.V                    :V16
V64.V                    :V64
SPR.OHM                  :SPR
N16.OHM.M                :N16
N64.OHM.M                :N64
GAMMA.CPS                :Gamma
EHT.VOLTS                :EHT
SPEED.FT/MIN             :Speed
TOOLPOWERVOLTAGE.V       :ToolPowerVoltage
TOOLPOWERCURRENT.MA      :ToolPowerCurrent
#------------------------------------------------------------
~PARAMETER INFORMATION
CASB1.               27  :CASB1
CASB2.              270  :CASB2
CASB3.                   :CASB3
CASB4.                   :CASB4
CASB5.                   :CASB5
CASC1.     STEEL CASING  :CASC1
CASC2.        OPEN HOLE  :CASC2
CASC3.                   :CASC3
CASC4.                   :CASC4
CASC5.                   :CASC5
CASD1.               6"  :CASD1
CASD2.               6"  :CASD2
CASD3.                   :CASD3
CASD4.                   :CASD4
CASD5.                   :CASD5
CAST1.                0  :CAST1
CAST2.               27  :CAST2
CAST3.                   :CAST3
CAST4.                   :CAST4
CAST5.                   :CAST5
DRDP.               275  :DRDP
EGL.             948 L1  :EGL
FTYP.             WATER  :FTYP
LDIR.                UP  :LDIR
LMF.             GROUND  :LMF
LOTD.               269  :LOTD
MGSCUTTINGSNO.      N/A  :MGSCUTTINGSNO
RANG.                19  :RANG
RATE.            15 FPM  :RATE
RECB.             MAYER  :RECB
RMKS.                    :RMKS
RNGD.                 W  :RNGD
RUN.                  1  :RUN
SECT.                31  :SECT
STOP_FT.            269  :STOP.FT
STRT_FT.              8  :STRT.FT
SUBS.            CDCDBB  :SUBS
SWL.                 24  :SWL
TOOL. GAMMA (40-GRP-7082)  :TOOL
TOWN.               112  :TOWN
#------------------------------------------------------------
~OTHER
#------------------------------------------------------------
~A  DEPT[FT]        TIME        TCPU       COUNT         VSP        VSPR           I         V16         V64         SPR         N16         N64       GAMMA         EHT       SPEED  TOOLPOWERV  TOOLPOWERC
# ...
     112.448    0.395661     15.7143     13.0000    -99999.0     15.5801     34.7762     7.29501     1.16539     448.010     1049.09     653.635     33.0817    -1037.13     15.1739     121.000     42.1622
     112.548    0.394678     15.7880     11.4537     628.038     15.5792     34.8007     7.27544     1.17296     447.669     1042.13     660.834     29.1852    -1031.79     15.1739     120.339     35.7330
     112.648    0.395322     15.7880     10.0000    -99999.0     15.5781     34.8590     7.24521     1.17865     446.890     1035.14     665.726     25.5462    -1042.47     15.1739     120.000     32.4324
     112.748    0.395339     15.7880     10.0000     627.432     15.5770     34.9391     7.21209     1.18065     445.835     1028.78     667.338     25.6072    -1034.03     15.1739     120.000     32.4324
     112.847    0.395000     15.7880     10.0000    -99999.0     15.5757     35.0560     7.19017     1.17925     444.311     1024.99     666.025     25.5418    -1029.56     15.1739     119.339     31.7179
     112.947    0.395000     15.6444     16.7054     626.826     15.5741     35.2210    -99999.0     1.17583     442.186    -99999.0     663.381     42.6159    -1029.56     15.2823     119.000     31.3514
     113.047    0.394339     15.7144     17.3255     626.826     15.5727     35.4000     7.16684     1.17275     439.910     1018.27     661.352     44.1575    -1032.79     15.3379     120.322     39.2146
     113.147    0.391355     15.6444     10.4522     626.776     15.5715     35.5659     7.17837     1.17042     437.822     1017.02     660.343     26.5960    -1027.45     15.3379     121.000     43.2432
     113.247    0.390661     15.7144     10.5480     626.270     15.5706     35.6882     7.19400     1.16923     436.296     1015.48     660.294     26.8798    -1028.45     15.2295     121.000     43.2432
     113.346    0.390339     15.6443     10.9679     626.776     15.5700     35.7677     7.20669     1.16766     435.309     1013.06     660.728     27.9458    -1036.02     15.1739     121.000     36.8084
     113.446    0.392646     15.7145     10.5161     626.220     15.5694     35.8133     7.21589     1.16448     434.738     1009.74     660.844     26.7584    -99999.0     15.1739     121.000     33.5135
     113.546    0.394662     15.7880     12.0325     626.118    -99999.0    -99999.0     7.22306     1.16149    -99999.0     1005.74     660.468     30.6170    -1033.91     15.1196     119.677     32.0830
     113.646    0.394338     15.6443     14.0326     624.957     15.5679     35.9150     7.23085    -99999.0     433.464     1001.66    -99999.0     35.7566    -1033.91     15.0919     119.000     31.3514
     113.746    0.394000     15.5708     12.4182     624.300     15.5673     35.9744     7.23473     1.15104     432.734     997.450     657.275     31.5789    -1043.60     15.0919     119.000     31.3514
     113.845    0.395324     15.7145     10.0000     623.189     15.5663     36.0889     7.23277     1.14938     431.334     994.000     655.354     25.3830    -1037.24     15.0919     120.324     39.2211
     113.945    0.396000     15.7880     8.45052    -99999.0     15.5652     36.2282     7.22694     1.14904     429.646     992.017     652.503     21.4560    -1037.14     15.0919     121.000     43.2432
     114.045    -99999.0    -99999.0     8.03336     621.925     15.5642     36.3835     7.22249     1.14915     427.784     992.002     648.391     20.3675    -1031.78     15.0919     120.338     35.3705
     114.145    0.397000     15.7880     9.51674     621.319     15.5632     36.5556     7.21449     1.15018     425.741     993.895     643.571     24.1542    -1029.56     15.0919     120.000     31.3514
     114.245    0.397000     15.7880    -99999.0     620.764     15.5619     36.7407     7.20540     1.15120     423.562     998.168     640.358    -99999.0    -1032.79     15.1462     120.000     31.3514
     114.344    0.396338     15.6442     10.0000     620.662     15.5606     36.9304     7.20286    -99999.0     421.353     1004.00    -99999.0     25.4453    -1033.91     15.1739     120.662     36.3622
     114.444    0.396662     15.7146     10.0000     619.551     15.5595     37.0905     7.20460     1.16138     419.504     1009.99     628.997     25.6148    -1030.67     15.1739     121.000     38.9189
     114.544    0.395675     15.7880     6.89842    -99999.0     15.5586     37.1823     7.20918     1.16875     418.443     1015.26     624.973     17.7251    -1032.79     15.1739     121.000     38.9189
     114.644    0.394338     15.7880     4.00000    -99999.0     15.5580     37.2057     7.21750     1.17577     418.162     1019.09     620.797     10.1907    -1037.14     15.1739     121.000     38.9189
     114.744    0.394000     15.7880     5.55154     617.681     15.5576     37.1583     7.22633     1.18186     418.683     1021.16     616.658     14.1027    -1035.01     15.2282     121.000     38.9189
     114.843    0.394000     15.7880     5.96551     617.126     15.5575     37.0070     7.23749     1.18641     420.397     1021.95     612.421     15.1744    -1033.91     15.2559     119.675     37.4862
     114.943    0.392675     15.7880    -99999.0     617.229     15.5577     36.7884     7.24477     1.18959     422.901     1021.88     607.810    -99999.0    -1037.14     15.2559     119.000     36.7568
     115.043    0.392663     15.7880     6.00000     618.441     15.5578     36.5664     7.24385     1.19054     425.470     1021.25     604.439     15.1515    -1035.01     15.3103     119.000     36.7568
     115.143    0.391012     15.7880     6.00000     619.602     15.5576     36.3664     7.23461    -99999.0     427.804     1020.41    -99999.0     15.1515    -1033.91     15.3379     119.000     36.7568
     115.243    0.390663     15.6440     7.03511     620.157     15.5568     36.2257     7.22321     1.19280     429.443     1019.72     594.934     17.7129    -1033.91     15.2836     119.000     36.7568
     115.342    0.391663     15.7148     7.48238    -99999.0     15.5557     36.1516     7.20104    -99999.0     430.290     1018.58    -99999.0     18.8459    -1043.62     15.2559     120.326     40.3405
     115.442    0.392000     15.6440     4.92927     620.106     15.5542     36.1473     7.16361     1.20233     430.300     1016.21     589.329     12.4576    -1037.23     15.2559     121.000     42.1622
     115.542    0.392663     15.7148     4.03549     619.551     15.5526     36.1817     7.13246    -99999.0     429.848     1013.94    -99999.0     10.2164    -1030.67     15.2559     121.000     42.1622
     115.642    0.393000     15.7880     7.07123     619.551     15.5514     36.2180    -99999.0     1.22354     429.385    -99999.0     593.277     17.9921    -1032.80     15.2559     121.000     38.5775
     115.742    0.392337     15.7880    -99999.0     619.603     15.5512     36.2200     7.02380     1.23230     429.354     1002.71     595.124    -99999.0    -1033.91     15.2559     121.000     36.7568
     115.841    0.392663     15.7880     6.00000     620.157     15.5517     36.2013     6.99631     1.23897     429.590     997.417     595.099     15.2284    -1033.91     15.2559     119.673     32.4536
     115.941    0.393000     15.7880    -99999.0    -99999.0     15.5525     36.1568     6.98817     1.24503     430.142     992.310     593.467    -99999.0    -1030.67     15.2559     119.000     30.2703
     116.041    0.393000     15.7880     5.00000     620.764     15.5536     36.0719     6.99765     1.25436     431.183     987.387     591.570     12.6904    -1032.80     15.2015     119.000     30.2703
     116.141    0.392336     15.6439    -99999.0     620.764     15.5546     35.9631     7.01741     1.26425     432.517     981.990     589.054    -99999.0    -99999.0     15.1739     119.000     35.2916
     116.241    0.393991     15.5708     13.0000    -99999.0    -99999.0    -99999.0     7.03190     1.27260    -99999.0     977.877     585.997     32.9949    -1033.91     15.1739     119.000     37.8378
     116.340    0.393672     15.5708     10.9263     622.686     15.5553     35.7676    -99999.0     1.27892     434.899    -99999.0     582.839     27.7618    -1033.91     15.1739     120.328     35.6850
