#------------------------------------------------------------
~VERSION INFORMATION
VERS.               2.0  :CWLS LOG ASCII STANDARD - VERSION 2.0
WRAP.                NO  :ONE LINE PER DEPTH STEP
#------------------------------------------------------------
~WELL INFORMATION
STRT.FT         4.66420  :FIRST INDEX VALUE
STOP.FT         269.533  :LAST INDEX VALUE
STEP.FT         0.00000  :STEP
NULL.            -99999  :NULL VALUE
COMP.                    :
WELL. CARLTON (DARCY TW)  :WELL
FLD.                     :
LOC.                     :
SRVC.                    :
CTRY.               USA  :CTRY
STAT.         MINNESOTA  :STAT
CNTY.              RICE  :CNTY
DATE.        04/22/2025  :DATE
API.             886189  :API
#------------------------------------------------------------
~CURVE INFORMATION
DEPT.FT                  :DEPTH
TIME.SEC                 :Time
TCPU.'C                  :TCPU
COUNT.                   :COUNT
VSP.MV                   :VSP
VSPR.V                   :VSPR
I.MA                     :I
V16.V                    :V16
V64.V                    :V64
SPR.OHM                  :SPR
N16.OHM.M                :N16
N64.OHM.M                :N64
GAMMA.CPS                :Gamma
EHT.VOLTS                :EHT
SPEED.FT/MIN             :Speed
TOOLPOWERVOLTAGE.V       :ToolPowerVoltage
TOOLPOWERCURRENT.MA      :ToolPowerCurrent
#------------------------------------------------------------
~PARAMETER INFORMATION
CASB1.               27  :CASB1
CASB2.              270  :CASB2
CASB3.                   :CASB3
CASB4.                   :CASB4
CASB5.                   :CASB5
CASC1.     STEEL CASING  :CASC1
CASC2.        OPEN HOLE  :CASC2
CASC3.                   :CASC3
CASC4.                   :CASC4
CASC5.                   :CASC5
CASD1.               6"  :CASD1
CASD2.               6"  :CASD2
CASD3.                   :CASD3
CASD4.                   :CASD4
CASD5.                   :CASD5
CAST1.                0  :CAST1
CAST2.               27  :CAST2
CAST3.                   :CAST3
CAST4.                   :CAST4
CAST5.                   :CAST5
DRDP.               275  :DRDP
EGL.             948 L1  :EGL
FTYP.             WATER  :FTYP
LDIR.                UP  :LDIR
LMF.             GROUND  :LMF
LOTD.               269  :LOTD
MGSCUTTINGSNO.      N/A  :MGSCUTTINGSNO
RANG.                19  :RANG
RATE.            15 FPM  :RATE
RECB.             MAYER  :RECB
RMKS.                    :RMKS
RNGD.                 W  :RNGD
RUN.                  1  :RUN
SECT.                31  :SECT
STOP_FT.            269  :STOP.FT
STRT_FT.              8  :STRT.FT
SUBS.            CDCDBB  :SUBS
SWL.                 24  :SWL
TOOL. GAMMA (40-GRP-7082)  :TOOL
TOWN.               112  :TOWN
#------------------------------------------------------------
~OTHER
#------------------------------------------------------------
~A  DEPT[FT]        TIME        TCPU       COUNT         VSP        VSPR           I         V16         V64         SPR         N16         N64       GAMMA         EHT       SPEED  TOOLPOWERV  TOOLPOWERC
# ...
     92.4882    -99999.0    -99999.0     5.50000    -99999.0     15.5173     37.6530     6.03886     1.02850     412.139     877.637     673.502     14.0764    -1029.56     15.2268     119.000     33.5135
     92.5880    0.391000     15.7880     8.50000     606.779     15.5230     36.9973     6.14273     1.02385     419.605     886.895     674.013     21.7295    -1026.40     15.2559     119.645     38.3972
     92.6878    0.391645     15.6478     5.99900     606.132     15.5280     36.3562     6.24757     1.02109     427.137     894.775     674.114     15.2971    -1031.54     15.3618     120.000     41.0811
     92.7876    0.392000     15.7110     2.50019     605.001     15.5319     35.7948     6.33637    -99999.0     433.937     901.025    -99999.0     6.35211    -99999.0     15.4199     120.000     41.0811
     92.8874    0.390063     15.6478     4.00050     604.960    -99999.0    -99999.0     6.43058     1.00779    -99999.0     908.519     668.380     10.0898    -1038.25     15.4199     120.646     42.4770
     92.9872    0.388354     15.7110     4.49962     604.395     15.5361     35.0320     6.50870     1.00390     443.484     916.634     665.891     11.2309    -1035.09     15.4729     121.000     43.2432
     93.0870    0.388000     15.7880     2.99912     604.395     15.5357     35.0619     6.57153     1.00299     443.094     925.481     665.149     7.42357    -1037.07     15.5020     121.000     37.6579
     93.1868    0.386708     15.6477     3.00100     604.395     15.5347     35.2060     6.62505    -99999.0     441.254     935.688    -99999.0     7.37964    -1035.09     15.5020     121.000     34.5946
     93.2866    0.387938     15.5708     2.49812    -99999.0     15.5332     35.4724     6.67901    -99999.0     437.904     947.895    -99999.0     6.12284    -1033.91     15.3430     121.000     34.5946
     93.3864    -99999.0    -99999.0    -99999.0     605.042     15.5319     35.7411     6.72546     1.02351     434.572     961.487     676.638    -99999.0    -1037.07     15.2559     119.708     31.8011
     93.4862    0.390000     15.7880     6.00000     605.607     15.5307     36.0042     6.75646     1.03533     431.364     976.052     684.596     14.7059    -1038.25     15.2029     119.000     30.2703
     93.5860    0.390646     15.7880     4.49755     605.607     15.5300     36.1977     6.77019     1.04209     429.034     991.438     689.478     11.0144    -1031.92     15.1739     119.000     30.2703
     93.6858    0.394231     15.7880     4.00176    -99999.0     15.5300     36.2754     6.76720    -99999.0     428.113     1006.98    -99999.0     9.90640    -1032.73     15.1739     119.646     37.9551
     93.7856    0.394707     15.6476    -99999.0     604.960     15.5306     36.2359     6.74575     1.05182     428.598     1021.51     700.891    -99999.0    -1030.74     15.0679     120.000     42.1622
     93.8854    0.395939     15.5708    -99999.0     604.354     15.5317     36.1100     6.71283     1.05096     430.124     1033.81     703.567    -99999.0    -1032.73     15.0098     120.646     37.9692
     93.9852    0.397646     15.5708     9.00000     603.789     15.5335     35.9089     6.67987     1.04902     432.585     1043.89     705.493     23.0179    -1030.74     15.0629     121.000     35.6757
     94.0850    0.398000     15.7112     8.49875    -99999.0     15.5360     35.6127     6.65462     1.04605     436.258     1052.59     706.971     21.7887    -1035.89     15.0919     121.000     35.6757
     94.1848    0.398647     15.7880     8.50132     603.182     15.5394     35.2025     6.63922     1.04369     441.447     1060.93     708.200     21.8543    -1031.92     15.0919     119.707     34.2776
     94.2846    0.397060     15.7880    -99999.0     603.141     15.5436     34.6983     6.63749     1.04553     447.988     1070.15     711.378    -99999.0    -1032.73     15.1979     119.000     33.5135
     94.3844    0.394706     15.6475     7.00000     602.535     15.5483     34.1227     6.65023     1.05411     455.691     1081.11     718.017     17.9487    -1030.74     15.2559     120.294     35.6112
     94.4842    0.394000     15.5708     4.49247     601.887     15.5531     33.5308     6.68001     1.06718     463.877     1093.35     726.786     11.5324    -1032.73     15.2559     121.000     36.7568
     94.5840    0.393353     15.5708     6.51411     600.716     15.5576     32.9914     6.72229     1.08209     471.592     1106.16     736.442     16.7524    -1033.91     15.2559     121.000     36.7568
     94.6838    0.393647     15.7113     6.48476     600.109     15.5615     32.5427     6.75720     1.09700     478.205     1115.26     745.402     16.6571    -1033.91     15.2559     121.000     36.7568
     94.7836    0.393353     15.7880     3.00351     599.503     15.5647     32.1722    -99999.0     1.11052     483.806    -99999.0     752.374     7.65549    -1030.74     15.2559     121.000     36.7568
     94.8834    0.392353     15.7880     6.00727     598.897     15.5670     31.8642     6.92442     1.12269     488.552     1148.08     757.311     15.3117    -1029.56     15.2559     119.706     33.2585
     94.9832    0.390705     15.7880     6.99611     598.333     15.5688     31.5843     7.02033     1.13410     492.937     1164.17     761.056     17.7889    -1032.73     15.2028     119.000     31.3514
     95.0830    0.391295     15.6474     5.49799     598.291     15.5700     31.3395     7.09281     1.14135     496.823     1175.93     763.035     13.8870    -1033.91     15.1739     119.000     31.3514
     95.1828    0.392647     15.7114     6.00426     597.726     15.5709     31.1426    -99999.0    -99999.0     499.990    -99999.0    -99999.0     15.1241    -1021.23     15.1739     120.942     37.6507
     95.2826    0.393647     15.7880     5.99574    -99999.0     15.5713     30.9909    -99999.0     1.16857     502.449    -99999.0     771.406     15.0867    -99999.0     14.9084     122.000     41.0811
     95.3824    0.396590     15.6473     5.50219     597.120    -99999.0    -99999.0     7.43926     1.18090    -99999.0     1229.53     775.377     13.7868    -1033.91     14.7638     121.352     41.7811
     95.4822    0.401886     15.7115     4.49304     597.120     15.5721     30.8057     7.51924     1.19228     505.495     1242.94     778.969     11.2707    -1030.73     14.7107     121.000     42.1622
     95.5820    0.404000     15.7880     4.50715    -99999.0     15.5723     30.7980     7.56592     1.20430     505.628     1251.46     783.258     11.3817    -1029.56     14.6818     121.000     42.1622
     95.6818    0.406591     15.6473     6.00000     598.375     15.5724     30.8002    -99999.0     1.22096     505.595    -99999.0     789.773     15.2292    -99999.0     14.6818     121.000     42.1622
     95.7816    0.408000     15.7115    -99999.0     598.981    -99999.0    -99999.0     7.66726     1.23872    -99999.0     1277.04     797.238    -99999.0    -99999.0     14.6818     121.000     42.1622
     95.8814    -99999.0    -99999.0     4.00000     599.545    -99999.0    -99999.0     7.68349     1.25053    -99999.0     1285.72     802.555     10.2302    -1033.91     14.6818     120.352     34.4564
     95.9812    0.408000     15.7880     5.50809     599.545     15.5719     30.8981     7.69068    -99999.0     503.976     1292.77    -99999.0     14.0642    -1033.91     14.9475     120.000     30.2703
     96.0810    0.408648     15.6472     4.98871     599.545     15.5717     30.9020     7.69569     1.28927     503.908     1300.05     819.477     12.7660    -1037.08     15.0919     120.000     30.2703
     96.1808    0.403815     15.7116     4.50846     599.503     15.5716     30.8855     7.69712     1.30185     504.171     1305.55     824.232     11.5799    -99999.0     15.0919     119.352     33.7739
     96.2806    -99999.0    -99999.0     6.00000     598.939    -99999.0    -99999.0     7.69712     1.30877    -99999.0     1309.19     826.748     15.3846    -1038.25     15.3045     119.000     35.6757
     96.3804    -99999.0    -99999.0     4.99398     598.939     15.5715     30.7089     7.70174    -99999.0     507.068     1311.53    -99999.0     12.7788    -1035.08     15.4199     120.945     37.7785
