#------------------------------------------------------------
~VERSION INFORMATION
VERS.               2.0  :CWLS LOG ASCII STANDARD - VERSION 2.0
WRAP.                NO  :ONE LINE PER DEPTH STEP
#------------------------------------------------------------
~WELL INFORMATION
STRT.FT         4.66420  :FIRST INDEX VALUE
STOP.FT         269.533  :LAST INDEX VALUE
STEP.FT         0.00000  :STEP
NULL.            -99999  :NULL VALUE
COMP.                    :
WELL. CARLTON (DARCY TW)  :WELL
FLD.                     :
LOC.                     :
SRVC.                    :
CTRY.               USA  :CTRY
STAT.         MINNESOTA  :STAT
CNTY.              RICE  :CNTY
DATE.        04/22/2025  :DATE
API.             886189  :API
#------------------------------------------------------------
~CURVE INFORMATION
DEPT.FT                  :DEPTH
TIME.SEC                 :Time
TCPU.'C                  :TCPU
COUNT.                   :COUNT
VSP.MV                   :VSP
VSPR.V                   :VSPR
I.MA                     :I
V16.V                    :V16
V64.V                    :V64
SPR.OHM                  :SPR
N16.OHM.M                :N16
N64.OHM.M                :N64
GAMMA.CPS                :Gamma
EHT.VOLTS                :EHT
SPEED.FT/MIN             :Speed
TOOLPOWERVOLTAGE.V       :ToolPowerVoltage
TOOLPOWERCURRENT.MA      :ToolPowerCurrent
#------------------------------------------------------------
~PARAMETER INFORMATION
CASB1.               27  :CASB1
CASB2.              270  :CASB2
CASB3.                   :CASB3
CASB4.                   :CASB4
CASB5.                   :CASB5
CASC1.     STEEL CASING  :CASC1
CASC2.        OPEN HOLE  :CASC2
CASC3.                   :CASC3
CASC4.                   :CASC4
CASC5.                   :CASC5
CASD1.               6"  :CASD1
CASD2.               6"  :CASD2
CASD3.                   :CASD3
CASD4.                   :CASD4
CASD5.                   :CASD5
CAST1.                0  :CAST1
CAST2.               27  :CAST2
CAST3.                   :CAST3
CAST4.                   :CAST4
CAST5.                   :CAST5
DRDP.               275  :DRDP
EGL.             948 L1  :EGL
FTYP.             WATER  :FTYP
LDIR.                UP  :LDIR
LMF.             GROUND  :LMF
LOTD.               269  :LOTD
MGSCUTTINGSNO.      N/A  :MGSCUTTINGSNO
RANG.                19  :RANG
RATE.            15 FPM  :RATE
RECB.             MAYER  :RECB
RMKS.                    :RMKS
RNGD.                 W  :RNGD
RUN.                  1  :RUN
SECT.                31  :SECT
STOP_FT.            269  :STOP.FT
STRT_FT.              8  :STRT.FT
SUBS.            CDCDBB  :SUBS
SWL.                 24  :SWL
TOOL. GAMMA (40-GRP-7082)  :TOOL
TOWN.               112  :TOWN
#------------------------------------------------------------
~OTHER
#------------------------------------------------------------
~A  DEPT[FT]        TIME        TCPU       COUNT         VSP        VSPR           I         V16         V64         SPR         N16         N64       GAMMA         EHT       SPEED  TOOLPOWERV  TOOLPOWERC
# ...
     128.416    0.395673     15.6418     6.11086     617.675     15.6335     25.3270    -99999.0     1.21720     617.270    -99999.0     915.599     15.7123    -1037.19     15.2291     120.346     32.8274
     128.516    0.393981     15.7170     5.36172     617.069     15.6336     25.2613    -99999.0    -99999.0     618.878    -99999.0    -99999.0     13.8189    -1034.97     15.2559     121.000     34.5946
     128.616    0.394346     15.6418     3.00000     616.462     15.6338     25.1789    -99999.0    -99999.0     620.910    -99999.0    -99999.0     7.72147    -1033.91     15.2559     121.000     34.5946
     128.716    0.394327     15.7170     3.00000     615.856     15.6340     25.0907     8.51856     1.26698     623.101     1764.39     926.419     7.69126    -1033.91     15.2007     120.327     37.5057
     128.815    0.394000     15.6417     3.52803     615.250     15.6342     25.0153     8.53676     1.28066     624.985     1766.80     932.241     9.02310    -1033.91     15.1739     120.000     38.9189
     128.915    0.393327     15.5708     2.41610     614.701     15.6345     24.9394     8.56133     1.29320     626.904     1767.41     939.451     6.16562    -99999.0     15.2291     119.327     33.0957
     129.015    0.393000     15.5708     3.11263    -99999.0    -99999.0    -99999.0     8.59408     1.30264    -99999.0     1766.21     946.097     7.88008    -99999.0     15.2559     119.000     30.2703
     129.115    0.391653     15.7171    -99999.0     612.218    -99999.0    -99999.0     8.63592     1.30666    -99999.0     1763.80     949.078    -99999.0    -99999.0     15.2559     119.000     30.2703
     129.215    0.392347     15.6417    -99999.0     611.670    -99999.0    -99999.0     8.68029    -99999.0    -99999.0     1760.90    -99999.0    -99999.0    -1038.25     15.2559     119.674     30.2703
     129.314    0.392326     15.5708     8.00000    -99999.0     15.6356     24.6551     8.72393     1.31225     634.173     1758.23     950.204     20.1005    -1034.97     15.2559     120.000     30.2703
     129.414    0.391326     15.7171     5.88586    -99999.0     15.6356     24.6584     8.76225     1.31305     634.086     1755.51     947.738     14.8425    -1030.62     15.2559     120.674     36.8263
     129.514    -99999.0    -99999.0     5.58540     610.457     15.6354     24.6914     8.79123     1.31469     633.232     1752.33     944.662     14.1761    -1032.84     15.1454     121.000     40.0000
     129.614    -99999.0    -99999.0     5.41422     610.399     15.6350     24.7694     8.80925     1.31700     631.223     1747.90     940.813     13.7281    -1024.05     15.0919     121.000     40.0000
     129.714    -99999.0    -99999.0     4.52866     609.851     15.6344     24.8988     8.82237     1.31861     627.923     1742.34     934.922     11.4819    -1027.44     15.1471     119.652     34.8993
     129.813    0.398000     15.5708    -99999.0     609.967     15.6335     25.0619     8.83754     1.31844     623.803     1734.27     926.361    -99999.0    -1029.56     15.1739     119.000     32.4324
     129.913    0.396652     15.7172     7.00000     611.238     15.6324     25.2308     8.85321     1.31620     619.580     1724.38     914.971     17.8571    -1036.13     15.1739     119.674     29.5172
     130.013    0.396000     15.7880     7.00000     613.116     15.6312     25.3929     8.86539     1.31362     615.577     1713.38     906.655     17.8813    -1034.96     15.2292     120.000     28.1081
     130.113    0.393303     15.7880     5.94218     615.599     15.6302     25.5353     8.87069    -99999.0     612.107     1701.79    -99999.0     15.1459    -1030.62     15.2559     120.000     28.1081
     130.213    0.393349     15.6415     3.94181     618.630     15.6295     25.6627     8.86964     1.30346     609.038     1689.37     870.997     10.0046    -1029.56     15.3112     121.349     36.1285
     130.312    0.392651     15.7173     4.05832     621.545     15.6289     25.7736     8.86372     1.30121     606.394     1675.60     855.666     10.3346    -1032.85     15.3379     122.000     40.0000
     130.412    0.390651     15.7880     2.88312     623.364     15.6282     25.9104     8.85849     1.29918     603.167     1665.87     840.038     7.35490    -1047.05     15.3379     122.000     40.0000
     130.512    0.390000     15.7880     3.64610     625.183     15.6270     26.0878    -99999.0     1.29825     599.023    -99999.0     825.029     9.26016    -1041.42     15.3379     119.976     32.7074
     130.612    0.390000     15.6414     3.88235     626.943     15.6256     26.2897    -99999.0     1.29799     594.372    -99999.0     810.544     9.85369    -1038.25     15.3379     119.000     29.1892
     130.712    0.390000     15.7173    -99999.0     628.156     15.6241     26.4911     8.84278     1.29721     589.792     1616.84     796.490    -99999.0    -1028.39     15.3933     120.349     32.8362
     130.811    0.390675     15.6414     4.00000     629.427     15.6225     26.6844     8.82299     1.29510     585.463     1605.86     782.534     10.1266    -1028.51     15.4199     121.000     34.5946
     130.911    0.388975     15.5708     6.64798     631.128     15.6213     26.8790     8.79009     1.29415     581.179     1596.43     774.153     16.8303    -1032.85     15.4199     121.000     34.5946
     131.011    0.388000     15.5708     7.94042     631.794     15.6204     27.0871     8.74147    -99999.0     576.681     1587.21    -99999.0     20.0550    -99999.0     15.3092     121.000     38.9740
     131.111    0.388675     15.7174     4.88111     632.947    -99999.0    -99999.0     8.70275     1.28391    -99999.0     1580.29     742.932     12.2950    -99999.0     15.2559     121.000     41.0811
     131.211    0.390350     15.6413     7.76922     633.495    -99999.0    -99999.0    -99999.0     1.27525    -99999.0    -99999.0     727.016     19.6103    -1033.91     15.2005     119.650     32.3218
     131.310    0.391000     15.7174     8.29107     633.495     15.6174     27.8805     8.57032     1.26852     560.155     1551.62     710.972     20.9540    -1030.62     15.1739     119.000     28.1081
     131.410    0.393701     15.6413     4.47003    -99999.0     15.6170     27.9813     8.50834     1.26433     558.128     1535.56     694.569     11.3165    -1032.85     15.1739     119.000     28.1081
     131.510    0.395000     15.5708     2.93992     634.101     15.6166     28.0877     8.45251     1.26399     555.996     1518.71     677.615     7.44965    -1033.91     15.0631     121.026     35.4098
     131.610    -99999.0    -99999.0    -99999.0     634.101     15.6165     28.1237     8.40272     1.26530     555.278     1501.08     667.025    -99999.0    -1037.20     15.0098     122.000     38.9189
     131.710    -99999.0    -99999.0     5.00000     634.101     15.6166     28.1256     8.35766    -99999.0     555.244     1481.96    -99999.0     12.7551    -99999.0     15.0098     122.000     38.9189
     131.809    0.398000     15.5708     6.06070    -99999.0    -99999.0    -99999.0     8.31495     1.28194    -99999.0     1461.17     629.875     15.5340    -1029.56     15.1207     119.973     33.8055
     131.909    0.395297     15.5708     4.87834     633.554     15.6166     28.1830     8.27681     1.28406     554.114     1439.09     621.104     12.5094    -1032.85     15.1739     119.000     31.3514
     132.009    0.394000     15.5708     5.12190     634.101     15.6166     28.2335     8.25591    -99999.0     553.123     1424.55    -99999.0     13.1391    -1037.20     15.1739     38.5773     10.1634
     132.109    0.394676     15.5708     5.40838     634.160     15.6164     28.3361    -99999.0    -99999.0     551.113    -99999.0    -99999.0     13.9173    -1034.96     15.1739     0.00000     0.00000
     132.209    0.394324     15.7176     6.12290     634.767     15.6159     28.4728     8.23074     1.30212     548.454     1375.84     587.126     15.8089    -1033.91     15.1739     0.00000     0.00000
     132.308    -99999.0    -99999.0    -99999.0     635.373     15.6150     28.6548     8.24351     1.30698     544.942     1356.11     580.225    -99999.0    -1027.32     15.2293     0.00000     0.00000
