#------------------------------------------------------------
~VERSION INFORMATION
VERS.               2.0  :CWLS LOG ASCII STANDARD - VERSION 2.0
WRAP.                NO  :ONE LINE PER DEPTH STEP
#------------------------------------------------------------
~WELL INFORMATION
STRT.FT         4.66420  :FIRST INDEX VALUE
STOP.FT         269.533  :LAST INDEX VALUE
STEP.FT         0.00000  :STEP
NULL.            -99999  :NULL VALUE
COMP.                    :
WELL. CARLTON (DARCY TW)  :WELL
FLD.                     :
LOC.                     :
SRVC.                    :
CTRY.               USA  :CTRY
STAT.         MINNESOTA  :STAT
CNTY.              RICE  :CNTY
DATE.        04/22/2025  :DATE
API.             886189  :API
#------------------------------------------------------------
~CURVE INFORMATION
DEPT.FT                  :DEPTH
TIME.SEC                 :Time
TCPU.'C                  :TCPU
COUNT.                   :COUNT
VSP.MV                   :VSP
VSPR.V                   :VSPR
I.MA                     :I
V16.V                    :V16
V64.V                    :V64
SPR.OHM                  :SPR
N16.OHM.M                :N16
N64.OHM.M                :N64
GAMMA.CPS                :Gamma
EHT.VOLTS                :EHT
SPEED.FT/MIN             :Speed
TOOLPOWERVOLTAGE.V       :ToolPowerVoltage
TOOLPOWERCURRENT.MA      :ToolPowerCurrent
#------------------------------------------------------------
~PARAMETER INFORMATION
CASB1.               27  :CASB1
CASB2.              270  :CASB2
CASB3.                   :CASB3
CASB4.                   :CASB4
CASB5.                   :CASB5
CASC1.     STEEL CASING  :CASC1
CASC2.        OPEN HOLE  :CASC2
CASC3.                   :CASC3
CASC4.                   :CASC4
CASC5.                   :CASC5
CASD1.               6"  :CASD1
CASD2.               6"  :CASD2
CASD3.                   :CASD3
CASD4.                   :CASD4
CASD5.                   :CASD5
CAST1.                0  :CAST1
CAST2.               27  :CAST2
CAST3.                   :CAST3
CAST4.                   :CAST4
CAST5.                   :CAST5
DRDP.               275  :DRDP
EGL.             948 L1  :EGL
FTYP.             WATER  :FTYP
LDIR.                UP  :LDIR
LMF.             GROUND  :LMF
LOTD.               269  :LOTD
MGSCUTTINGSNO.      N/A  :MGSCUTTINGSNO
RANG.                19  :RANG
RATE.            15 FPM  :RATE
RECB.             MAYER  :RECB
RMKS.                    :RMKS
RNGD.                 W  :RNGD
RUN.                  1  :RUN
SECT.                31  :SECT
STOP_FT.            269  :STOP.FT
STRT_FT.              8  :STRT.FT
SUBS.            CDCDBB  :SUBS
SWL.                 24  :SWL
TOOL. GAMMA (40-GRP-7082)  :TOOL
TOWN.               112  :TOWN
#------------------------------------------------------------
~OTHER
#------------------------------------------------------------
~A  DEPT[FT]        TIME        TCPU       COUNT         VSP        VSPR           I         V16         V64         SPR         N16         N64       GAMMA         EHT       SPEED  TOOLPOWERV  TOOLPOWERC
# ...
     8.65620    -99999.0    -99999.0    -99999.0     113.944    -99999.0    -99999.0    -99999.0   0.0645739    -99999.0    -99999.0     11906.0    -99999.0    -99999.0    -99999.0    -99999.0    -99999.0
     8.75600    -99999.0    -99999.0     8.61207     113.945    -99999.0    -99999.0    -99999.0   0.0750827    -99999.0    -99999.0     14356.0     25.9708    -99999.0    -99999.0    -99999.0    -99999.0
     8.85580    -99999.0    -99999.0     12.0000     114.550    -99999.0    -99999.0    -99999.0   0.0805755    -99999.0    -99999.0     16181.7     36.1446    -99999.0    -99999.0    -99999.0    -99999.0
     8.95560    -99999.0    -99999.0    -99999.0     114.550    -99999.0    -99999.0    -99999.0   0.0789159    -99999.0    -99999.0     15785.8    -99999.0    -99999.0    -99999.0    -99999.0    -99999.0
     9.05540    -99999.0    -99999.0     17.2078     114.550    -99999.0    -99999.0    -99999.0   0.0736933    -99999.0    -99999.0     14630.7     51.3239    -99999.0    -99999.0    -99999.0    -99999.0
     9.15520    -99999.0    -99999.0     11.0000    -99999.0    -99999.0    -99999.0    -99999.0    -99999.0    -99999.0    -99999.0    -99999.0     32.7381    -99999.0    -99999.0    -99999.0    -99999.0
     9.25500    -99999.0    -99999.0    -99999.0     114.552    -99999.0    -99999.0    -99999.0   0.0627376    -99999.0    -99999.0     11691.9    -99999.0    -99999.0    -99999.0    -99999.0    -99999.0
     9.35480    -99999.0    -99999.0     10.5640     115.156    -99999.0    -99999.0     3.65224   0.0708049    -99999.0     178278.     12703.5     31.3858    -99999.0    -99999.0    -99999.0    -99999.0
     9.45460    -99999.0    -99999.0     11.7440     115.156    -99999.0    -99999.0     3.70337   0.0860017    -99999.0     184121.     14723.4     34.7916    -99999.0    -99999.0    -99999.0    -99999.0
     9.55440    -99999.0    -99999.0     15.7440     115.156    -99999.0    -99999.0     3.69930    0.103794    -99999.0     178918.     17217.8     46.5800    -99999.0    -99999.0    -99999.0    -99999.0
     9.65420    -99999.0    -99999.0     15.8198     115.156    -99999.0    -99999.0     3.67996    0.124314    -99999.0     174356.     20173.6     46.8439    -99999.0    -99999.0    -99999.0    -99999.0
     9.75400    -99999.0    -99999.0     13.0000     115.156    -99999.0    -99999.0     3.66484    0.130193    -99999.0     173234.     20717.4     38.3481    -99999.0    -99999.0    -99999.0    -99999.0
     9.85380    -99999.0    -99999.0    -99999.0     115.156    -99999.0    -99999.0     3.63672    0.126286    -99999.0     172396.     20800.9    -99999.0    -99999.0    -99999.0    -99999.0    -99999.0
     9.95360    -99999.0    -99999.0     12.9272     115.158    -99999.0    -99999.0    -99999.0    0.117632    -99999.0    -99999.0     19727.9     37.9519    -1035.33    -99999.0    -99999.0    -99999.0
     10.0534    -99999.0    -99999.0     19.7455     115.762     15.7713    0.103491     3.52408   0.0963487     152435.     158541.     16295.4     57.6489    -1035.37    -99999.0    -99999.0    -99999.0
     10.1532    -99999.0    -99999.0     16.3254    -99999.0     15.7714    0.103707     3.50756   0.0679850     152106.     157736.     11825.2     47.7689    -1033.91    -99999.0    -99999.0    -99999.0
     10.2530    -99999.0    -99999.0     10.3100     116.369     15.7714    0.106521    -99999.0   0.0499673     148083.    -99999.0     9393.99     30.2346    -1031.02    -99999.0    -99999.0    -99999.0
     10.3528    -99999.0    -99999.0     16.3668     116.369     15.7714    0.107945     3.52965   0.0425479     146107.     158236.     8593.35     48.2467    -1026.68    -99999.0    -99999.0    -99999.0
     10.4526    -99999.0    -99999.0     22.8734     116.373     15.7714    0.107905     3.55721    -99999.0     146161.     162641.    -99999.0     67.5814    -99999.0    -99999.0    -99999.0    -99999.0
     10.5524    0.332836     15.8788     18.7592     117.581    -99999.0    -99999.0    -99999.0   0.0168725    -99999.0    -99999.0     3380.12     55.2915    -1042.59     18.1266     119.418     23.7838
     10.6522    0.330253     15.7880     13.3106     117.581     15.7715    0.113505     3.66701   0.0120975     138950.     168774.     2434.36     39.0360    -1036.82     18.1266     119.000     23.7838
     10.7520    0.330164     15.7880     13.2519    -99999.0     15.7716    0.113539     3.71625   0.0135788     138909.     176875.     2685.11     38.7895    -99999.0     18.1266     119.000     23.7838
     10.8518    0.329835     15.7880     12.7482     117.579    -99999.0    -99999.0     3.75130   0.0152059    -99999.0     188354.     2883.73     37.2726    -1033.91     18.0789     119.000     24.4134
     10.9516    0.330165     15.9145     17.1853     116.975     15.7718    0.114671     3.70596   0.0157813     137539.     185393.     2904.52     50.1776    -1031.02     18.0446     119.000     24.8649
     11.0514    -99999.0    -99999.0     20.0000     116.975     15.7717    0.112947     3.51247   0.0166585     139661.     174338.     3066.92     58.4795    -99999.0     18.0446     119.000     24.8649
     11.1512    0.331000     15.7880    -99999.0     116.977    -99999.0    -99999.0    -99999.0   0.0171592    -99999.0    -99999.0     3071.43    -99999.0    -1033.91     18.0446     120.165     31.7928
     11.2510    0.331583     15.7880     10.8747     117.581     15.7717    0.111523     2.75060   0.0177111     141421.     128374.     3049.78     31.3899    -1033.91     17.8535     121.000     36.7568
     11.3508    -99999.0    -99999.0     12.0000     117.584     15.7717    0.110237     2.76754   0.0181601     143084.     124636.     3008.33     34.3966    -1031.02     17.7165     121.000     36.7568
     11.4506    0.335000     15.7880     13.3123     118.190     15.7716    0.104876     2.83209   0.0188416     150575.     121554.     3060.56     38.3067    -1029.56     17.7165     121.583     35.4964
     11.5504    0.335583     15.7880     15.0000     118.791     15.7715    0.101770     2.99489   0.0195349     154971.     124301.     3221.22     43.2602    -1029.56     17.7643     122.000     34.5946
     11.6502    -99999.0    -99999.0     11.4982     118.190     15.7716    0.102453     3.43011   0.0200134     153944.     139377.     3351.73     33.0480    -99999.0     17.7986     122.000     34.5946
     11.7500    0.337000     15.7880     9.18871     118.794    -99999.0    -99999.0     3.78229   0.0205661    -99999.0     150345.     3443.14     26.5900    -1038.25     17.7507     121.417     32.7034
     11.8498    0.336417     15.7880     14.1888    -99999.0     15.7721    0.108607     4.00302    -99999.0     145221.     164720.    -99999.0     41.1962    -1038.25     17.7165     121.000     31.3514
     11.9496    0.337750     15.7880     12.6212     118.797     15.7720    0.110571     4.01209   0.0207254     142675.     168205.     3569.88     36.8225    -1032.47     17.7165     121.000     31.3514
     12.0494    0.337833     15.9147     7.43805     119.400     15.7721    0.115374     4.00174   0.0205408     136790.     169263.     3499.16     21.6302    -1029.56     17.6687     121.000     28.8291
     12.1492    0.338167     15.8785     8.87614     119.400     15.7721    0.120596     3.93574   0.0205023     130835.     171402.     3389.17     25.4025    -1029.56     17.6345     121.000     27.0270
     12.2490    -99999.0    -99999.0     12.6286     119.403     15.7719    0.123549     3.92045   0.0206748     127662.     184370.     3575.36     35.2813    -1032.45     17.6345     121.000     27.0270
     12.3488    0.337000     15.7880     16.0000     120.006     15.7716    0.127485     3.97197   0.0208180     123772.     200554.     3577.20     44.3065    -1033.91     17.5866     121.000     27.0270
     12.4486    0.340502     15.6612     16.0000     120.009     15.7715    0.126918    -99999.0   0.0210120     124312.    -99999.0     3526.68     44.4444    -1031.01     17.5525     121.000     27.0270
     12.5484    0.342416     15.6976    -99999.0     120.612     15.7715    0.123191     4.15647   0.0208650     128041.     208251.     3460.77    -99999.0    -1029.56     17.5525     121.000     27.0270
