#------------------------------------------------------------
~VERSION INFORMATION
VERS.               2.0  :CWLS LOG ASCII STANDARD - VERSION 2.0
WRAP.                NO  :ONE LINE PER DEPTH STEP
#------------------------------------------------------------
~WELL INFORMATION
STRT.FT         4.66420  :FIRST INDEX VALUE
STOP.FT         269.533  :LAST INDEX VALUE
STEP.FT         0.00000  :STEP
NULL.            -99999  :NULL VALUE
COMP.                    :
WELL. CARLTON (DARCY TW)  :WELL
FLD.                     :
LOC.                     :
SRVC.                    :
CTRY.               USA  :CTRY
STAT.         MINNESOTA  :STAT
CNTY.              RICE  :CNTY
DATE.        04/22/2025  :DATE
API.             886189  :API
#------------------------------------------------------------
~CURVE INFORMATION
DEPT.FT                  :DEPTH
TIME.SEC                 :Time
TCPU.'C                  :TCPU
COUNT.                   :COUNT
VSP.MV                   :VSP
VSPR.V                   :VSPR
I.MA                     :I
V16.V                    :V16
V64.V                    :V64
SPR.OHM                  :SPR
N16.OHM.M                :N16
N64.OHM.M                :N64
GAMMA.CPS                :Gamma
EHT.VOLTS                :EHT
SPEED.FT/MIN             :Speed
TOOLPOWERVOLTAGE.V       :ToolPowerVoltage
TOOLPOWERCURRENT.MA      :ToolPowerCurrent
#------------------------------------------------------------
~PARAMETER INFORMATION
CASB1.               27  :CASB1
CASB2.              270  :CASB2
CASB3.                   :CASB3
CASB4.                   :CASB4
CASB5.                   :CASB5
CASC1.     STEEL CASING  :CASC1
CASC2.        OPEN HOLE  :CASC2
CASC3.                   :CASC3
CASC4.                   :CASC4
CASC5.                   :CASC5
CASD1.               6"  :CASD1
CASD2.               6"  :CASD2
CASD3.                   :CASD3
CASD4.                   :CASD4
CASD5.                   :CASD5
CAST1.                0  :CAST1
CAST2.               27  :CAST2
CAST3.                   :CAST3
CAST4.                   :CAST4
CAST5.                   :CAST5
DRDP.               275  :DRDP
EGL.             948 L1  :EGL
FTYP.             WATER  :FTYP
LDIR.                UP  :LDIR
LMF.             GROUND  :LMF
LOTD.               269  :LOTD
MGSCUTTINGSNO.      N/A  :MGSCUTTINGSNO
RANG.                19  :RANG
RATE.            15 FPM  :RATE
RECB.             MAYER  :RECB
RMKS.                    :RMKS
RNGD.                 W  :RNGD
RUN.                  1  :RUN
SECT.                31  :SECT
STOP_FT.            269  :STOP.FT
STRT_FT.              8  :STRT.FT
SUBS.            CDCDBB  :SUBS
SWL.                 24  :SWL
TOOL. GAMMA (40-GRP-7082)  :TOOL
TOWN.               112  :TOWN
#------------------------------------------------------------
~OTHER
#------------------------------------------------------------
~A  DEPT[FT]        TIME        TCPU       COUNT         VSP        VSPR           I         V16         V64         SPR         N16         N64       GAMMA         EHT       SPEED  TOOLPOWERV  TOOLPOWERC
# ...
     60.5522    0.382000     15.7880     12.0986     500.753     15.3755     41.5946     6.22572     1.07969     369.652     761.996     533.085     31.6392    -1035.20     15.5840     45.1343     12.3010
     60.6520    0.382000     15.6531     11.4264     501.385     15.3803     41.6663     6.23854     1.08221     369.131     763.565     536.002     29.7502    -1030.85     15.6349     0.00000     0.00000
     60.7518    0.382000     15.7056     11.5734     502.572     15.3852     41.6786     6.25102     1.08871     369.139     764.922     541.102     30.1252    -1029.56     15.6660     0.00000     0.00000
     60.8516    0.383242     15.7880     12.3780     503.204     15.3892     41.6603     6.26224     1.09604     369.397     765.208     547.426     32.1739    -1029.56     15.6660     75.1299     27.5213
     60.9514    0.384000     15.7880     10.7195     504.417     15.3909     41.6592     6.27123     1.10230     369.447     764.468     553.495     27.7900    -1032.62     15.6151     121.000     44.3243
     61.0512    0.382758     15.7880     11.7080     505.629     15.3904     41.6905     6.27844     1.10550     369.158     763.179     557.981     30.4104    -1036.96     15.5840     121.000     44.3243
     61.1510    0.383242     15.7880     12.2904     506.842     15.3887     41.7180     6.28861     1.10618     368.876     761.972     560.526     31.8849    -1035.19     15.5840     121.000     44.3243
     61.2508    0.384000     15.7880     6.00000     508.028     15.3870     41.7263     6.30321     1.10555     368.761     761.111     561.482     15.4849    -1030.85     15.5840     121.000     44.3243
     61.3506    0.384621     15.7880     7.42795     508.635     15.3857     41.7239     6.31138     1.10552     368.749     760.687     561.334     19.1727    -1032.62     15.5840     121.000     40.9658
     61.4504    0.383757     15.7880     9.95209     509.215     15.3849     41.7501     6.31348     1.10680     368.499     760.679     560.707     25.7510    -1033.91     15.4821     121.000     38.9189
     61.5502    0.384243     15.7880     9.09556    -99999.0     15.3852     41.8254    -99999.0     1.10809     367.843    -99999.0     560.333     23.4751    -1033.91     15.4199     121.000     38.9189
     61.6500    0.386865     15.7880     5.57130    -99999.0     15.3869     41.9338     6.29942    -99999.0     366.934     760.972    -99999.0     14.2854    -1033.91     15.4199     121.000     38.9189
     61.7498    0.388622     15.7880     3.52370     511.060     15.3899     42.0549    -99999.0     1.11796     365.948    -99999.0     561.332     9.03513    -1030.85     15.4199     121.000     38.9189
     61.8496    0.387757     15.7880     5.85779     511.666     15.3930     42.2029     6.25431     1.12748     364.740     759.696     564.040     15.1917    -1032.62     15.4199     121.000     36.9028
     61.9494    0.387622     15.7880     10.9057     512.272     15.3958     42.3280     6.24442     1.14048     363.726     759.206     568.481     28.4002    -1033.91     15.4709     121.000     35.6757
     62.0492    0.387378     15.6529     10.6176     512.879     15.3977     42.3793     6.23818     1.15493     363.331     759.169     573.247     26.9978    -99999.0     15.5020     121.000     35.6757
     62.1490    0.388244     15.7059     8.00000     513.485    -99999.0    -99999.0     6.23262     1.16579    -99999.0     759.644     576.684     20.0911    -1029.56     15.5020     121.000     35.0033
     62.2488    0.385890     15.7880     8.00000     514.065     15.3987     42.2764     6.22403     1.17171     364.239     760.412     578.871     20.7792    -99999.0     15.7060     121.000     34.5946
     62.3486    0.384622     15.7880    -99999.0     514.091    -99999.0    -99999.0     6.21572     1.17586    -99999.0     761.906     580.722    -99999.0    -1025.22     15.8301     119.756     32.5770
     62.4484    0.381889     15.7880     9.38400     514.671     15.3952     42.0559     6.20707     1.17820     366.065     763.802     581.813     24.5126    -1034.40     15.7280     119.000     31.3514
     62.5482    0.379378     15.7880     12.4769     514.698     15.3943     42.0304     6.20041     1.17948     366.266     765.244     582.252     32.4083    -1035.19     15.6660     119.000     31.3514
     62.6480    -99999.0    -99999.0     9.66109     515.304     15.3928     41.9931     6.19639    -99999.0     366.556     767.153    -99999.0     24.9905    -1033.91     15.6660     119.000     31.3514
     62.7478    0.382000     15.7880     5.52295     515.910     15.3918     41.9474     6.19652     1.20374     366.932     769.780     588.023     14.2503    -1030.84     15.6150     119.000     31.3514
     62.8476    -99999.0    -99999.0     4.52289     516.490     15.3918     41.8707     6.19098     1.22071     367.604     772.868     592.068     11.6118    -1026.50     15.5840     119.000     31.3514
     62.9474    0.382000     15.7880     8.29458    -99999.0     15.3926     41.7609     6.18335     1.23866     368.590     776.028     596.649     21.0259    -1028.28     15.5840     119.000     32.0243
     63.0472    0.382623     15.7880     9.18161     517.729     15.3941     41.6040     6.17499     1.25376     370.017     779.038     601.257     23.2293    -1032.62     15.6351     119.000     32.4324
     63.1470    0.384245     15.7880     5.00000     518.335     15.3959     41.4631     6.17124     1.26048     371.316     781.676     604.656     12.5960    -1036.97     15.6660     119.000     35.7984
     63.2468    0.383754     15.9233     5.00000     518.915     15.3984     41.3348     6.16861     1.25855     372.531     783.200     606.833     12.5628    -1032.13     15.5128     119.000     37.8378
     63.3466    0.384869     15.8699    -99999.0     518.942     15.4022     41.2109     6.17128     1.25220     373.742     783.440     608.408    -99999.0    -1032.62     15.4199     119.000     37.8378
     63.4464    0.385377     15.7880     9.00000     519.548     15.4077     41.0448     6.18255     1.24237     375.391     783.107     608.581     22.7300    -1033.91     15.4199     119.623     39.1846
     63.5462    0.385000     15.7880     7.56697     520.127     15.4144     40.8384     6.19365     1.22702     377.451     782.997     607.097     19.1339    -1040.03     15.4710     120.000     40.0000
     63.6460    0.386246     15.7880     9.34418    -99999.0     15.4209     40.6170    -99999.0     1.21173     379.669    -99999.0     604.489     23.8169    -1036.47     15.5020     120.623     43.3680
     63.7458    0.387623     15.6526     9.65540     521.367     15.4261     40.4216     6.24811     1.19970     381.633     784.418     601.640     24.8030    -1033.91     15.4509     121.000     45.4054
     63.8456    0.387377     15.7062     7.91146     521.973     15.4295     40.2780     6.28469     1.19172     383.076     786.112     599.269     20.6566    -1030.84     15.4199     121.000     45.4054
     63.9454    0.386377     15.7880     7.13207     522.552     15.4307     40.2148     6.32388     1.18485     383.707     788.184     597.011     18.6478    -1029.56     15.4199     121.000     44.0576
     64.0452    0.388494     15.7880     10.2147     522.579     15.4298     40.2563     6.36622     1.17849     383.291     790.103     595.182     26.6436    -1032.63     15.4199     121.000     43.2432
     64.1450    0.390000     15.7880     11.2626     523.186     15.4279     40.3558     6.40237     1.17327     382.299     791.818     593.849     29.3624    -99999.0     15.4199     121.000     43.2432
     64.2448    0.390000     15.6526     5.95636     523.792    -99999.0    -99999.0     6.42754    -99999.0    -99999.0     793.885    -99999.0     15.6156    -1025.22     15.4199     121.000     40.5469
     64.3446    0.386258     15.5708     10.8264     524.398     15.4246     40.6338     6.45136    -99999.0     379.601     796.531    -99999.0     28.3175    -1031.35     15.2665     121.000     38.9189
     64.4444    0.384000     15.7063     10.6947     525.005     15.4250     40.7305     6.46716     1.14767     378.709     798.410     584.370     27.8652    -1033.91     15.1739     121.000     36.2220
