#------------------------------------------------------------
~VERSION INFORMATION
VERS.               2.0  :CWLS LOG ASCII STANDARD - VERSION 2.0
WRAP.                NO  :ONE LINE PER DEPTH STEP
#------------------------------------------------------------
~WELL INFORMATION
STRT.FT         4.66420  :FIRST INDEX VALUE
STOP.FT         269.533  :LAST INDEX VALUE
STEP.FT         0.00000  :STEP
NULL.            -99999  :NULL VALUE
COMP.                    :
WELL. CARLTON (DARCY TW)  :WELL
FLD.                     :
LOC.                     :
SRVC.                    :
CTRY.               USA  :CTRY
STAT.         MINNESOTA  :STAT
CNTY.              RICE  :CNTY
DATE.        04/22/2025  :DATE
API.             886189  :API
#------------------------------------------------------------
~CURVE INFORMATION
DEPT.FT                  :DEPTH
TIME.SEC                 :Time
TCPU.'C                  :TCPU
COUNT.                   :COUNT
VSP.MV                   :VSP
VSPR.V                   :VSPR
I.MA                     :I
V16.V                    :V16
V64.V                    :V64
SPR.OHM                  :SPR
N16.OHM.M                :N16
N64.OHM.M                :N64
GAMMA.CPS                :Gamma
EHT.VOLTS                :EHT
SPEED.FT/MIN             :Speed
TOOLPOWERVOLTAGE.V       :ToolPowerVoltage
TOOLPOWERCURRENT.MA      :ToolPowerCurrent
#------------------------------------------------------------
~PARAMETER INFORMATION
CASB1.               27  :CASB1
CASB2.              270  :CASB2
CASB3.                   :CASB3
CASB4.                   :CASB4
CASB5.                   :CASB5
CASC1.     STEEL CASING  :CASC1
CASC2.        OPEN HOLE  :CASC2
CASC3.                   :CASC3
CASC4.                   :CASC4
CASC5.                   :CASC5
CASD1.               6"  :CASD1
CASD2.               6"  :CASD2
CASD3.                   :CASD3
CASD4.                   :CASD4
CASD5.                   :CASD5
CAST1.                0  :CAST1
CAST2.               27  :CAST2
CAST3.                   :CAST3
CAST4.                   :CAST4
CAST5.                   :CAST5
DRDP.               275  :DRDP
EGL.             948 L1  :EGL
FTYP.             WATER  :FTYP
LDIR.                UP  :LDIR
LMF.             GROUND  :LMF
LOTD.               269  :LOTD
MGSCUTTINGSNO.      N/A  :MGSCUTTINGSNO
RANG.                19  :RANG
RATE.            15 FPM  :RATE
RECB.             MAYER  :RECB
RMKS.                    :RMKS
RNGD.                 W  :RNGD
RUN.                  1  :RUN
SECT.                31  :SECT
STOP_FT.            269  :STOP.FT
STRT_FT.              8  :STRT.FT
SUBS.            CDCDBB  :SUBS
SWL.                 24  :SWL
TOOL. GAMMA (40-GRP-7082)  :TOOL
TOWN.               112  :TOWN
#------------------------------------------------------------
~OTHER
#------------------------------------------------------------
~A  DEPT[FT]        TIME        TCPU       COUNT         VSP        VSPR           I         V16         V64         SPR         N16         N64       GAMMA         EHT       SPEED  TOOLPOWERV  TOOLPOWERC
# ...
     44.5842    0.385825     15.7880     12.1480     352.197     15.6746     23.2230     11.5350     5.30489     674.959     2371.37     4849.16     31.2903    -1032.56     15.3700     120.825     34.6852
     44.6840    0.387000     15.7880     10.0000     352.234     15.6740     23.3379     11.6415     5.27129     671.619     2381.67     4859.24     25.9648    -1036.91     15.3379     122.000     38.9189
     44.7838    0.388217     15.6558     10.9263     353.428     15.6730     23.5546     11.6944     5.25095     665.408     2395.63     4870.37     28.4528    -1038.25     15.3379     122.000     38.9189
     44.8836    0.387783     15.7030     10.6100     354.016     15.6718     23.8421     11.6965     5.22771     657.341     2407.99     4864.05     27.6436    -1035.25     15.4378     122.000     38.9189
     44.9834    0.391261     15.7880     8.07330    -99999.0     15.6705     24.1187     11.6637     5.21219     649.741     2419.46     4859.76     21.2015    -1036.91     15.5020     122.000     38.9189
     45.0832    0.389738     15.7880     10.2434    -99999.0     15.6692     24.4137     11.6042     5.20056     641.847     2437.23     4854.89     26.9825    -1032.25     15.5020     121.391     40.2353
     45.1830    0.385782     15.6557     11.2190     349.054     15.6680     24.6955     11.5338     5.18397     634.463     2452.88     4834.42     29.4726    -1032.56     15.5020     121.000     41.0811
     45.2828    0.385609     15.7030     9.39099     345.380     15.6671     24.8974     11.4651     5.16368     629.273     2458.91     4801.75     24.6540    -1033.91     15.5020     121.000     41.0811
     45.3826    0.386000     15.6557     6.82703     340.567     15.6668     24.9622     11.4164     5.14225     627.621     2458.75     4760.17     17.9659    -1036.91     15.6019     119.782     34.4985
     45.4824    0.387827     15.7031     5.24586     337.041     15.6670     24.8919     11.3935     5.12158     629.407     2453.49     4715.33     13.8049    -1035.25     15.6660     119.000     30.2703
     45.5822    0.385954     15.7880     9.46373    -99999.0     15.6675     24.7580     11.3896     5.09449     632.830     2445.89     4660.53     24.8090    -1030.90     15.6660     119.000     30.2703
     45.6820    0.382782     15.7880     8.60838     333.442     15.6684     24.5220     11.4014     5.05354     638.974     2443.87     4583.37     22.4984    -1032.56     15.6660     119.000     28.9530
     45.7818    0.381391     15.7880     7.46401     334.616     15.6697     24.2063     11.4197     5.00853     647.367     2447.28     4502.79     19.4636    -1033.91     15.6660     119.000     28.1081
     45.8816    0.381609     15.7880     10.7842    -99999.0     15.6709     23.9377     11.4188     4.99005     654.666     2450.66     4464.26     27.9673    -1033.91     15.6160     46.4797     10.9786
     45.9814    0.381390     15.7880     11.2156     343.843     15.6717     23.7692     11.3968    -99999.0     659.332     2459.42    -99999.0     28.9817    -1033.91     15.5840     0.00000     0.00000
     46.0812    0.382219     15.7880     9.39256     348.087     15.6720     23.7056     11.3480     4.90537     661.112     2468.44     4300.07     24.2474    -1033.91     15.5840     0.00000     0.00000
     46.1810    0.383000     15.7880     8.67824     352.236     15.6720     23.7387     11.2675     4.86346     660.188     2474.57     4210.08     22.3359    -1033.91     15.4840     74.3681     24.3830
     46.2808    0.385438     15.7880     7.85754     353.410     15.6718     23.8007     11.1568     4.84082     658.458     2475.16     4139.38     20.0945    -1033.91     15.4199     122.000     40.0000
     46.3806    0.386390     15.7880     8.60675     353.333     15.6716     23.8286     11.0515     4.84752     657.682     2478.20     4109.01     22.1685    -1033.91     15.4199     122.000     40.0000
     46.4804    0.386610     15.9205     10.2509     350.985     15.6716     23.8292     10.9544     4.91551     657.665     2477.42     4145.67     26.5317    -1030.90     15.3699     122.000     40.0000
     46.5802    0.388830     15.8727     14.0000    -99999.0     15.6719     23.7580     10.8368     5.04057     659.653     2475.55     4252.49     36.2694    -1035.57     15.3379     122.000     40.0000
     46.6800    0.390000     15.7880    -99999.0     341.285     15.6725     23.6082     10.7310     5.19772     663.868     2472.30     4403.65    -99999.0    -1038.25     15.3880     120.780     38.0218
     46.7798    0.390000     15.7880     7.39419    -99999.0     15.6734     23.4029     10.6427     5.35495     669.735     2467.48     4560.39     19.3060    -1029.23     15.4199     120.000     36.7568
     46.8796    0.389390     15.7880     7.14096     353.449     15.6743     23.1805     10.5608     5.47615     676.198     2456.33     4672.42     18.6290    -1028.22     15.4199     120.000     36.7568
     46.9794    0.389000     15.7880     7.78945     354.798     15.6753     22.9296     10.4896     5.54562     683.649     2444.87     4710.56     20.3899    -1032.57     15.5201     119.390     31.4788
     47.0792    0.387779     15.7880     10.5349     360.313     15.6762     22.7157     10.4052     5.60480     690.114     2428.43     4708.99     27.6828    -1027.89     15.5840     119.000     28.1081
     47.1790    0.384559     15.7880     11.8603     367.315     15.6771     22.5030     10.3121     5.67010     696.683     2404.42     4693.63     31.1216    -1034.24     15.6841     119.610     29.4277
     47.2788    0.384221     15.7880     11.2096     366.082     15.6779     22.2896     10.2133     5.74657     703.388     2374.75     4673.74     29.2937    -1035.24     15.7480     120.000     30.2703
     47.3786    0.383168     15.7880     8.00000     364.362     15.6786     22.1128     10.1187     5.82220     709.037     2342.23     4650.65     20.7831    -1033.91     15.7480     120.000     30.2703
     47.4784    0.380168     15.7880     7.06956     365.594     15.6792     22.0010     10.0469     5.89899     712.658     2313.02     4643.84     18.2407    -1036.91     15.7480     121.221     34.8909
     47.5782    0.379611     15.7880     5.53461     367.275     15.6794     21.9416     10.0040     5.95122     714.597     2288.71     4649.12     14.1158    -1038.25     15.7480     122.000     37.8378
     47.6780    0.381222     15.7880     7.79251     364.889     15.6796     21.8966     9.97833    -99999.0     716.077     2263.31    -99999.0     19.6626    -1038.25     15.7480     122.000     37.8378
     47.7778    0.380778     15.7880     11.0000     363.716     15.6798     21.8855     9.97844    -99999.0     716.447     2243.33    -99999.0     27.7404    -1035.24     15.7480     122.000     38.4983
     47.8776    0.380000     15.7880     14.7245    -99999.0     15.6797     21.9197     9.99899     6.02048     715.328     2236.35     4688.97     37.0709    -1033.91     15.7480     122.000     38.9189
     47.9774    0.380000     15.7880     15.7399     361.877     15.6794     21.9947    -99999.0     5.96481     712.876    -99999.0     4652.35     39.6183    -1033.91     15.5977     120.167     35.6165
     48.0772    0.381833     15.7880     10.1371     361.291     15.6790     22.1027     10.0835     5.84389     709.375     2210.82     4546.77     25.5279    -1030.89     15.5020     119.000     33.5135
     48.1770    0.382389     15.7880     7.53424     361.291     15.6786     22.2244     10.1057     5.73194     705.475     2188.15     4442.17     18.8828    -1020.53     15.5020     119.000     33.5135
     48.2768    0.383834     15.7880     7.00000     361.311     15.6781     22.3846     10.1282    -99999.0     700.407     2165.98    -99999.0     17.5439    -1028.58     15.4017     119.611     30.8702
     48.3766    0.385611     15.7880    -99999.0     361.917     15.6774     22.5874     10.1560     5.22837     694.091     2152.80     3928.90    -99999.0    -1030.89     15.3379     120.000     29.1892
     48.4764    0.387834     15.7880    -99999.0     362.504     15.6767     22.7704     10.2194     5.05381     688.477     2154.84     3754.58    -99999.0    -99999.0     15.3881     120.000     29.1892
