#------------------------------------------------------------
~VERSION INFORMATION
VERS.               2.0  :CWLS LOG ASCII STANDARD - VERSION 2.0
WRAP.                NO  :ONE LINE PER DEPTH STEP
#------------------------------------------------------------
~WELL INFORMATION
STRT.FT         4.66420  :FIRST INDEX VALUE
STOP.FT         269.533  :LAST INDEX VALUE
STEP.FT         0.00000  :STEP
NULL.            -99999  :NULL VALUE
COMP.                    :
WELL. CARLTON (DARCY TW)  :WELL
FLD.                     :
LOC.                     :
SRVC.                    :
CTRY.               USA  :CTRY
STAT.         MINNESOTA  :STAT
CNTY.              RICE  :CNTY
DATE.        04/22/2025  :DATE
API.             886189  :API
#------------------------------------------------------------
~CURVE INFORMATION
DEPT.FT                  :DEPTH
TIME.SEC                 :Time
TCPU.'C                  :TCPU
COUNT.                   :COUNT
VSP.MV                   :VSP
VSPR.V                   :VSPR
I.MA                     :I
V16.V                    :V16
V64.V                    :V64
SPR.OHM                  :SPR
N16.OHM.M                :N16
N64.OHM.M                :N64
GAMMA.CPS                :Gamma
EHT.VOLTS                :EHT
SPEED.FT/MIN             :Speed
TOOLPOWERVOLTAGE.V       :ToolPowerVoltage
TOOLPOWERCURRENT.MA      :ToolPowerCurrent
#------------------------------------------------------------
~PARAMETER INFORMATION
CASB1.               27  :CASB1
CASB2.              270  :CASB2
CASB3.                   :CASB3
CASB4.                   :CASB4
CASB5.                   :CASB5
CASC1.     STEEL CASING  :CASC1
CASC2.        OPEN HOLE  :CASC2
CASC3.                   :CASC3
CASC4.                   :CASC4
CASC5.                   :CASC5
CASD1.               6"  :CASD1
CASD2.               6"  :CASD2
CASD3.                   :CASD3
CASD4.                   :CASD4
CASD5.                   :CASD5
CAST1.                0  :CAST1
CAST2.               27  :CAST2
CAST3.                   :CAST3
CAST4.                   :CAST4
CAST5.                   :CAST5
DRDP.               275  :DRDP
EGL.             948 L1  :EGL
FTYP.             WATER  :FTYP
LDIR.                UP  :LDIR
LMF.             GROUND  :LMF
LOTD.               269  :LOTD
MGSCUTTINGSNO.      N/A  :MGSCUTTINGSNO
RANG.                19  :RANG
RATE.            15 FPM  :RATE
RECB.             MAYER  :RECB
RMKS.                    :RMKS
RNGD.                 W  :RNGD
RUN.                  1  :RUN
SECT.                31  :SECT
STOP_FT.            269  :STOP.FT
STRT_FT.              8  :STRT.FT
SUBS.            CDCDBB  :SUBS
SWL.                 24  :SWL
TOOL. GAMMA (40-GRP-7082)  :TOOL
TOWN.               112  :TOWN
#------------------------------------------------------------
~OTHER
#------------------------------------------------------------
~A  DEPT[FT]        TIME        TCPU       COUNT         VSP        VSPR           I         V16         V64         SPR         N16         N64       GAMMA         EHT       SPEED  TOOLPOWERV  TOOLPOWERC
# ...
     264.144    0.397000     15.5708     1.73507    -99999.0     15.3298     79.7648     3.28310    0.942653     192.189     205.127     223.300     4.39259    -99999.0     15.1739     120.000     41.0811
     264.244    -99999.0    -99999.0     2.26461    -99999.0    -99999.0    -99999.0    -99999.0    -99999.0    -99999.0    -99999.0    -99999.0     5.69699    -1029.56     15.1101     119.222     38.5594
     264.344    0.396000     15.5708     4.89691    -99999.0     15.3221     80.7824     3.21820    0.982235     189.671     203.218     219.510     12.4006    -1037.03     15.0919     119.000     37.8378
     264.444    0.395222     15.4018     2.20467    -99999.0     15.3186     81.2478     3.19812     1.01165     188.543     202.288     217.766     5.59560    -1034.51     15.1557     119.000     37.8378
     264.543    0.394222     15.5226    -99999.0    -99999.0     15.3147     81.7032     3.18662     1.04558     187.444     201.351     216.189    -99999.0    -1037.64     15.1739     119.000     38.6790
     264.643    0.395556     15.4018     1.00000    -99999.0     15.3122     81.9277     3.18481     1.09785     186.900     200.443     214.460     2.68097    -1038.25     15.1739     119.000     38.9189
     264.743    -99999.0    -99999.0     1.00000    -99999.0     15.3121     81.7897     3.18617     1.17365     187.213     199.586     212.503     2.70870    -99999.0     15.0463     119.000     43.1245
     264.843    0.397000     15.5708    -99999.0    -99999.0    -99999.0    -99999.0     3.18314     1.25098    -99999.0     198.670     210.816    -99999.0    -1038.25     15.0098     119.000     44.3243
     264.943    0.400113     15.5708     1.00000    -99999.0     15.3162     80.9707     3.17635     1.31824     189.158     197.574     209.592     2.73224    -1038.25     15.0737     119.000     44.3243
     265.042    0.398665     15.5708     4.16483    -99999.0     15.3178     80.8034     3.16671     1.36410     189.568     196.276     209.026     11.3793    -1034.51     15.0919     119.778     48.5312
     265.142    0.396443     15.5708     2.83471    -99999.0     15.3191     80.7295     3.15426     1.38039     189.758     194.862     208.913     7.72181    -1037.64     15.0919     120.000     49.7297
     265.242    0.397557     15.5708     1.63331    -99999.0     15.3193     80.9018     3.13987    -99999.0     189.357     193.394    -99999.0     4.04785    -1034.51     15.1557     120.000     49.7297
     265.342    -99999.0    -99999.0     5.79985    -99999.0     15.3183     81.2888     3.12331     1.41005     188.444     191.931     207.807     11.9044    -1033.91     15.1739     120.000     49.7297
     265.442    0.394000     15.3536     6.73338    -99999.0     15.3175     81.6355     3.10336    -99999.0     187.634     190.607    -99999.0     13.3618    -1037.64     15.2378     120.000     49.7297
     265.541    0.394000     15.5227     4.10035    -99999.0     15.3170     81.9149     3.08406     1.41890     186.987     189.574     207.722     8.06544    -1038.25     15.2559     120.779     47.2048
     265.641    0.394000     15.5708     3.63356    -99999.0     15.3163     82.2018     3.06506    -99999.0     186.326     188.534    -99999.0     7.53608    -1038.25     15.2559     121.000     46.4865
     265.741    0.393221     15.5708     2.73288    -99999.0     15.3155     82.4940     3.04696     1.41753     185.657     187.123     209.350     5.81954    -1034.51     15.3198     121.000     46.4865
     265.841    0.391442     15.5708    -99999.0    -99999.0     15.3151     82.7506     3.03957     1.40541     185.076     186.252     210.474    -99999.0    -1030.16     15.3379     119.442     40.5911
     265.941    0.391000     15.5708     8.00000    -99999.0     15.3146     82.9985    -99999.0     1.36848     184.517    -99999.0     211.794     16.8067    -1048.26     15.2740     119.000     38.9189
     266.040    0.389441     15.5708    -99999.0    -99999.0     15.3147     83.1471     3.00878     1.31691     184.188     179.878     213.117    -99999.0    -1040.05     15.2559     119.000     38.9189
     266.140    0.390558     15.5708     1.00000    -99999.0     15.3157     83.1306     3.00388     1.26170     184.236     177.893     214.383     2.29885    -1034.51     15.2559     119.000     38.9189
     266.240    0.390221     15.5708    -99999.0    -99999.0     15.3167     83.0559    -99999.0     1.19996     184.414    -99999.0     215.594    -99999.0    -1033.91     15.1920     119.000     38.9189
     266.340    0.391559     15.5708     6.00000    -99999.0     15.3173     83.0171     2.99662     1.14977     184.508     167.677     216.418     13.8249    -1033.91     15.1739     119.000     38.9189
     266.440    0.392780     15.5708     5.36578    -99999.0     15.3162     83.2701     3.00634    -99999.0     183.934     162.104    -99999.0     12.5892    -99999.0     15.1739     119.000     38.9189
     266.539    0.394559     15.4014     4.36569    -99999.0    -99999.0    -99999.0     3.02545    -99999.0    -99999.0     156.668    -99999.0     11.2755    -1038.25     15.1739     119.000     40.6044
     266.639    0.395000     15.6923     3.36569    -99999.0     15.3078     84.7880     3.06575    -99999.0     180.543     150.302    -99999.0     9.21011    -1045.74     15.1739     119.000     41.0811
     266.739    0.397339     15.6187     4.26812    -99999.0     15.3019     85.9129     3.12956    -99999.0     178.118     142.225    -99999.0     11.8141    -99999.0     15.4296     119.000     41.0811
     266.839    0.394881     15.4014     3.09659    -99999.0    -99999.0    -99999.0     3.19335    -99999.0    -99999.0     134.994    -99999.0     8.59187    -1038.25     15.5020     119.780     46.1391
     266.939    0.396339     15.5229     2.63456    -99999.0     15.2804     89.9433     3.24412    -99999.0     169.889     129.256    -99999.0     7.32733    -1034.50     15.5020     120.000     47.5676
     267.038    -99999.0    -99999.0     4.26912    -99999.0     15.2677     92.3064     3.27075    -99999.0     165.435     125.434    -99999.0     11.6290    -1033.91     16.0776     120.000     48.4106
     267.138    0.373000     15.3536    -99999.0    -99999.0     15.2471     96.0724     3.27678    -99999.0     158.754     123.980    -99999.0    -99999.0    -1026.42     16.2402     120.000     48.6486
     267.238    0.368318     15.5231    -99999.0    -99999.0     15.2256     99.9225    -99999.0    -99999.0     152.414    -99999.0    -99999.0    -99999.0    -1028.96     16.1762     120.000     48.6486
     267.338    -99999.0    -99999.0    -99999.0    -99999.0     15.1858     106.907     3.27569    -99999.0     142.192     120.689    -99999.0    -99999.0    -1029.56     16.1581     119.220     46.9615
     267.438    0.366000     15.5708    -99999.0    -99999.0     15.1367     115.370    -99999.0    -99999.0     131.340    -99999.0    -99999.0    -99999.0    -1048.29     16.1581     119.000     46.4865
     267.537    0.366000     15.5708    -99999.0    -99999.0     15.0879     123.615     3.28174    -99999.0     122.156     120.109    -99999.0    -99999.0    -1036.30     13.5983     119.000     46.4865
     267.637    0.369903     15.5708    -99999.0    -99999.0     15.0465     130.344    -99999.0    -99999.0     115.488    -99999.0    -99999.0    -99999.0    -1037.65     12.8773     119.781     43.1112
     267.737    0.404563     15.5708    -99999.0    -99999.0     15.0207     134.260     3.29186    -99999.0     111.889     121.499    -99999.0    -99999.0    -99999.0     12.8773     120.000     42.1622
     267.837    0.481126     15.4012    -99999.0    -99999.0    -99999.0    -99999.0     3.27308    -99999.0    -99999.0     122.448    -99999.0    -99999.0    -1033.91     12.0450     120.781     53.1319
     267.937    0.505462     15.5231    -99999.0    -99999.0     14.9853     138.612     3.19789    -99999.0     108.110     123.498    -99999.0    -99999.0    -99999.0     11.8110     121.000     56.2162
     268.036    0.509342     15.7404    -99999.0    -99999.0    -99999.0    -99999.0     3.08032    -99999.0    -99999.0     124.414    -99999.0    -99999.0    -1033.91     12.5795     119.439     48.6199
