#------------------------------------------------------------
~VERSION INFORMATION
VERS.               2.0  :CWLS LOG ASCII STANDARD - VERSION 2.0
WRAP.                NO  :ONE LINE PER DEPTH STEP
#------------------------------------------------------------
~WELL INFORMATION
STRT.FT         4.22960  :FIRST INDEX VALUE
STOP.FT         269.254  :LAST INDEX VALUE
STEP.FT         0.00000  :STEP
NULL.            -99999  :NULL VALUE
COMP.                    :
WELL. CARLTON (DARCY TW)  :WELL
FLD.                     :
LOC.                     :
SRVC.                    :
CTRY.               USA  :CTRY
STAT.         MINNESOTA  :STAT
CNTY.              RICE  :CNTY
DATE.        04/22/2025  :DATE
API.             886189  :API
#------------------------------------------------------------
~CURVE INFORMATION
DEPT.FT                  :DEPTH
CALIPER-IN.IN            :Caliper-In
TIME.SEC                 :Time
TCPU.'C                  :TCPU
MOTOR.                   :Motor
CALIPER-CM.CM            :Caliper-Cm
OPEN.                    :Open
CLOSE.                   :Close
ARM.                     :Arm
SPEED.FT/MIN             :Speed
TOOLPOWERVOLTAGE.V       :ToolPowerVoltage
TOOLPOWERCURRENT.MA      :ToolPowerCurrent
#------------------------------------------------------------
~PARAMETER INFORMATION
CASB1.               27  :CASB1
CASB2.              270  :CASB2
CASB3.                   :CASB3
CASB4.                   :CASB4
CASB5.                   :CASB5
CASC1.     STEEL CASING  :CASC1
CASC2.        OPEN HOLE  :CASC2
CASC3.                   :CASC3
CASC4.                   :CASC4
CASC5.                   :CASC5
CASD1.               6"  :CASD1
CASD2.               6"  :CASD2
CASD3.                   :CASD3
CASD4.                   :CASD4
CASD5.                   :CASD5
CAST1.                0  :CAST1
CAST2.               27  :CAST2
CAST3.                   :CAST3
CAST4.                   :CAST4
CAST5.                   :CAST5
DRDP.               275  :DRDP
EGL.             948 L1  :EGL
FTYP.             WATER  :FTYP
LDIR.                UP  :LDIR
LMF.             GROUND  :LMF
LOTD.               269  :LOTD
MGSCUTTINGSNO.      N/A  :MGSCUTTINGSNO
RANG.                19  :RANG
RATE.            15 FPM  :RATE
RECB.             MAYER  :RECB
RMKS.                    :RMKS
RNGD.                 W  :RNGD
RUN.                  1  :RUN
SECT.                31  :SECT
STOP_FT.            269  :STOP.FT
STRT_FT.              4  :STRT.FT
SUBS.            CDCDBB  :SUBS
SWL.                 24  :SWL
TOOL. CALIPER (GO4-CAL-PLUG-7090)  :TOOL
TOWN.               112  :TOWN
#------------------------------------------------------------
~OTHER
#------------------------------------------------------------
~A  DEPT[FT]  CALIPER-IN        TIME        TCPU       MOTOR  CALIPER-CM        OPEN       CLOSE         ARM       SPEED  TOOLPOWERV  TOOLPOWERC
# ...
     224.646     6.07760    0.568969     20.5670     128.000     15.3672     0.00000     1.00000    -1.00000     17.4003     119.000     20.5405
     224.810    -99999.0    0.570656     20.5670     128.000    -99999.0     0.00000     1.00000    -1.00000     17.3885     119.000     15.9138
     224.974     6.06073    0.570344     20.5670     128.000     15.3254     0.00000     1.00000    -1.00000     17.3183     120.711     21.6104
     225.138    -99999.0    0.573933     20.5670     128.000    -99999.0     0.00000     1.00000    -1.00000     17.3064     121.000     22.7027
     225.302     6.07760    0.564207     20.5670     128.000     15.3672     0.00000     1.00000    -1.00000     17.2363     120.145     25.4763
     225.466     6.07760    -99999.0    -99999.0    -99999.0     15.3672    -99999.0    -99999.0    -99999.0     17.2244     120.000     25.9459
     225.630     6.07760    0.557000     20.5670     128.000     15.3672     0.00000     1.00000    -1.00000     17.2945     118.291     17.6297
     225.794     6.07760    -99999.0    -99999.0    -99999.0     15.3672    -99999.0    -99999.0    -99999.0     17.6568     118.000     16.2162
     225.958     6.07760    0.553000     20.3498     128.000     15.3672     0.00000     1.00000    -1.00000     17.7165     119.708     18.0630
     226.122     6.07760    0.554962     20.4918     128.000     15.3672     0.00000     1.00000    -1.00000     17.7165     120.000     18.3784
     226.286     6.07760    0.556654     20.4250     128.000     15.3672     0.00000     1.00000    -1.00000     17.7165     120.000     24.8386
     226.450     6.08863    0.560267     20.4917     128.000     15.3945     0.00000     1.00000    -1.00000     17.7865     118.293     17.6431
     226.614    -99999.0    0.563306     20.5670     128.000    -99999.0     0.00000     1.00000    -1.00000     17.7986     118.000     16.2162
     226.778    -99999.0    0.563347     20.4252     128.000    -99999.0     0.00000     1.00000    -1.00000     17.5887     118.853     15.2943
     226.942     6.14509    0.561695     20.4915     128.000     15.5344     0.00000     1.00000    -1.00000     17.5525     119.000     15.1351
     227.106    -99999.0    0.561000     20.5670     128.000    -99999.0     0.00000     1.00000    -1.00000     17.4826     120.705     20.6636
     227.270     6.11135    -99999.0    -99999.0    -99999.0     15.4508    -99999.0    -99999.0    -99999.0     17.5404     121.000     21.6216
     227.434     6.11135    -99999.0    -99999.0    -99999.0     15.4508    -99999.0    -99999.0    -99999.0     17.5525     119.296     23.4635
     227.598     6.07837    0.559000     20.3498     128.000     15.3691     0.00000     1.00000    -1.00000     17.4826     119.000     23.7838
     227.762     6.06073    -99999.0    -99999.0    -99999.0     15.3254    -99999.0    -99999.0    -99999.0     17.4705     119.000     15.5002
     227.926     6.06073    0.559000     20.3498     128.000     15.3254     0.00000     1.00000    -1.00000     17.6101     120.702     19.5746
     228.090     6.06073    0.556396     20.4911     128.000     15.3254     0.00000     1.00000    -1.00000     17.6345     121.000     20.5405
     228.254     6.06073    0.553699     20.5670     128.000     15.3254     0.00000     1.00000    -1.00000     17.7043     120.149     24.2189
     228.418    -99999.0    0.556903     20.5670     128.000    -99999.0     0.00000     1.00000    -1.00000     17.7165     120.000     24.8649
     228.582     6.06073    0.557700     20.5670     128.000     15.3254     0.00000     1.00000    -1.00000     17.7165     118.300     16.5932
     228.746     6.06073    0.557000     20.5670     128.000     15.3254     0.00000     1.00000    -1.00000     17.6468     118.000     15.1351
     228.910     6.06073    0.555051     20.4258     128.000     15.3254     0.00000     1.00000    -1.00000     17.6345     119.699     16.0537
     229.074     6.06073    -99999.0    -99999.0    -99999.0     15.3254    -99999.0    -99999.0    -99999.0     17.7042     120.000     16.2162
     229.238     6.06073    0.553000     20.5670     128.000     15.3254     0.00000     1.00000    -1.00000     17.7165     120.849     20.8059
     229.402     6.06073    0.554947     20.4260     128.000     15.3254     0.00000     1.00000    -1.00000     17.7862     120.151     23.4571
     229.566     6.08262    0.556649     20.4907     128.000     15.3796     0.00000     1.00000    -1.00000     17.7986     120.000     23.7838
     229.730    -99999.0    0.556352     20.5670     128.000    -99999.0     0.00000     1.00000    -1.00000     17.7290     119.152     15.5299
     229.894     6.06073    0.556648     20.5670     128.000     15.3254     0.00000     1.00000    -1.00000     17.7165     119.000     14.0541
     230.058     6.07166    0.557648     20.5670     128.000     15.3525     0.00000     1.00000    -1.00000     17.6470     120.695     19.5528
     230.222     6.07760    0.561885     20.5670     128.000     15.3672     0.00000     1.00000    -1.00000     17.7040     121.000     20.5405
     230.386     6.07760    -99999.0    -99999.0    -99999.0     15.3672    -99999.0    -99999.0    -99999.0     17.7165     120.153     24.2044
     230.550     6.07760    0.561000     20.5670     128.000     15.3672     0.00000     1.00000    -1.00000     17.5776     120.000     24.8649
     230.714     6.07760    0.561647     20.5670     128.000     15.3672     0.00000     1.00000    -1.00000     17.5525     118.306     16.6256
     230.878    -99999.0    0.560060     20.4265     128.000    -99999.0     0.00000     1.00000    -1.00000     17.4831     118.847     16.0503
     231.042     6.07760    0.559646     20.4901     128.000     15.3672     0.00000     1.00000    -1.00000     17.4705     119.000     16.2162
     231.206     6.07760    0.560000     20.5670     128.000     15.3672     0.00000     1.00000    -1.00000     17.5399     120.692     23.5334
     231.370     6.07760    0.559354     20.5670     128.000     15.3672     0.00000     1.00000    -1.00000     17.5525     121.000     24.8649
     231.534     6.07760    -99999.0    -99999.0    -99999.0     15.3672    -99999.0    -99999.0    -99999.0     17.5525     119.309     23.0369
     231.698     6.07760    0.557000     20.5670     128.000     15.3672     0.00000     1.00000    -1.00000     17.6218     119.000     22.7027
     231.862     6.07760    0.557000     20.5670     128.000     15.3672     0.00000     1.00000    -1.00000     17.6345     119.000     15.3950
     232.026     6.07760    0.555710     20.5670     128.000     15.3672     0.00000     1.00000    -1.00000     17.6345     119.000     14.0541
     232.190     6.07760    0.555645     20.5670     128.000     15.3672     0.00000     1.00000    -1.00000     17.6345     120.689     19.5319
     232.354     6.07760    0.555356     20.5670     128.000     15.3672     0.00000     1.00000    -1.00000     17.7038     120.156     24.1912
     232.518     6.07760    0.555644     20.5670     128.000     15.3672     0.00000     1.00000    -1.00000     17.7165     120.000     24.8649
     232.682     6.07760    0.559219     20.5670     128.000     15.3672     0.00000     1.00000    -1.00000     17.6473     118.313     18.4798
     232.846     6.12102    0.554565     20.5670     128.000     15.4748     0.00000     1.00000    -1.00000     17.7037     118.000     17.2973
     233.010     6.10168    0.552930     20.5670     128.000     15.4269     0.00000     1.00000    -1.00000     17.7165     119.687     16.3856
     233.174     6.07760    0.556572     20.5670     128.000     15.3672     0.00000     1.00000    -1.00000     17.7165     120.000     16.2162
     233.338     6.07760    0.558000     20.5670     128.000     15.3672     0.00000     1.00000    -1.00000     17.7165     120.843     23.5030
     233.502     6.06677    0.558642     20.4274     128.000     15.3404     0.00000     1.00000    -1.00000     17.7165     121.000     24.8649
     233.666     6.07157    0.555789     20.4892     128.000     15.3523     0.00000     1.00000    -1.00000     17.7165     119.316     23.0441
