#------------------------------------------------------------
~VERSION INFORMATION
VERS.               2.0  :CWLS LOG ASCII STANDARD - VERSION 2.0
WRAP.                NO  :ONE LINE PER DEPTH STEP
#------------------------------------------------------------
~WELL INFORMATION
STRT.FT         4.22960  :FIRST INDEX VALUE
STOP.FT         269.254  :LAST INDEX VALUE
STEP.FT         0.00000  :STEP
NULL.            -99999  :NULL VALUE
COMP.                    :
WELL. CARLTON (DARCY TW)  :WELL
FLD.                     :
LOC.                     :
SRVC.                    :
CTRY.               USA  :CTRY
STAT.         MINNESOTA  :STAT
CNTY.              RICE  :CNTY
DATE.        04/22/2025  :DATE
API.             886189  :API
#------------------------------------------------------------
~CURVE INFORMATION
DEPT.FT                  :DEPTH
CALIPER-IN.IN            :Caliper-In
TIME.SEC                 :Time
TCPU.'C                  :TCPU
MOTOR.                   :Motor
CALIPER-CM.CM            :Caliper-Cm
OPEN.                    :Open
CLOSE.                   :Close
ARM.                     :Arm
SPEED.FT/MIN             :Speed
TOOLPOWERVOLTAGE.V       :ToolPowerVoltage
TOOLPOWERCURRENT.MA      :ToolPowerCurrent
#------------------------------------------------------------
~PARAMETER INFORMATION
CASB1.               27  :CASB1
CASB2.              270  :CASB2
CASB3.                   :CASB3
CASB4.                   :CASB4
CASB5.                   :CASB5
CASC1.     STEEL CASING  :CASC1
CASC2.        OPEN HOLE  :CASC2
CASC3.                   :CASC3
CASC4.                   :CASC4
CASC5.                   :CASC5
CASD1.               6"  :CASD1
CASD2.               6"  :CASD2
CASD3.                   :CASD3
CASD4.                   :CASD4
CASD5.                   :CASD5
CAST1.                0  :CAST1
CAST2.               27  :CAST2
CAST3.                   :CAST3
CAST4.                   :CAST4
CAST5.                   :CAST5
DRDP.               275  :DRDP
EGL.             948 L1  :EGL
FTYP.             WATER  :FTYP
LDIR.                UP  :LDIR
LMF.             GROUND  :LMF
LOTD.               269  :LOTD
MGSCUTTINGSNO.      N/A  :MGSCUTTINGSNO
RANG.                19  :RANG
RATE.            15 FPM  :RATE
RECB.             MAYER  :RECB
RMKS.                    :RMKS
RNGD.                 W  :RNGD
RUN.                  1  :RUN
SECT.                31  :SECT
STOP_FT.            269  :STOP.FT
STRT_FT.              4  :STRT.FT
SUBS.            CDCDBB  :SUBS
SWL.                 24  :SWL
TOOL. CALIPER (GO4-CAL-PLUG-7090)  :TOOL
TOWN.               112  :TOWN
#------------------------------------------------------------
~OTHER
#------------------------------------------------------------
~A  DEPT[FT]  CALIPER-IN        TIME        TCPU       MOTOR  CALIPER-CM        OPEN       CLOSE         ARM       SPEED  TOOLPOWERV  TOOLPOWERC
# ...
     206.278     6.17443    0.555000     20.3498     128.000     15.6071     0.00000     1.00000    -1.00000     17.7986     119.000     22.7027
     206.442     6.25345    0.555685     20.3498     128.000     15.8029     0.00000     1.00000    -1.00000     17.7986     119.000     14.0954
     206.606     6.23387    0.561476     20.3498     128.000     15.7544     0.00000     1.00000    -1.00000     17.7986     119.884     16.7972
     206.770     6.13178    0.560579     20.3498     128.000     15.5014     0.00000     1.00000    -1.00000     17.7260     120.000     17.2973
     206.934    -99999.0    0.565840     20.3498     128.000    -99999.0     0.00000     1.00000    -1.00000     17.7165     120.000     24.9417
     207.098    -99999.0    0.563530     20.3498     128.000    -99999.0     0.00000     1.00000    -1.00000     17.4991     120.000     25.9459
     207.262    -99999.0    0.553482     20.3498     128.000    -99999.0     0.00000     1.00000    -1.00000     17.4705     118.233     17.3505
     207.426     6.31379    0.553416     20.3498     128.000     15.9525     0.00000     1.00000    -1.00000     17.5429     118.000     16.2162
     207.590     6.32531    -99999.0    -99999.0    -99999.0     15.9810    -99999.0    -99999.0    -99999.0     17.6973     119.766     17.1707
     207.754     6.29612    -99999.0    -99999.0    -99999.0     15.9087    -99999.0    -99999.0    -99999.0     17.7165     120.000     17.2973
     207.918    -99999.0    -99999.0    -99999.0    -99999.0    -99999.0    -99999.0    -99999.0    -99999.0     17.7889     120.882     23.9746
     208.082     6.36440    0.558000     20.3498     128.000     16.0779     0.00000     1.00000    -1.00000     17.7986     119.236     20.0966
     208.246     6.43342    0.562092     20.3498     128.000     16.2489     0.00000     1.00000    -1.00000     17.5816     119.000     19.4595
     208.410     6.47713    0.563318     20.3498     128.000     16.3572     0.00000     1.00000    -1.00000     17.5525     14.0828     2.30289
     208.574    -99999.0    -99999.0    -99999.0    -99999.0    -99999.0    -99999.0    -99999.0    -99999.0     17.6248     0.00000     0.00000
     208.738     6.61746    0.566000     20.3498     128.000     16.7049     0.00000     1.00000    -1.00000     17.6345     105.736     21.9092
     208.902     6.49112    0.564638     20.3498     128.000     16.3919     0.00000     1.00000    -1.00000     17.4900     120.000     24.8649
     209.066     6.35152    0.555152     20.3498     128.000     16.0459     0.00000     1.00000    -1.00000     17.3983     120.000     24.8649
     209.230     6.22198    -99999.0    -99999.0    -99999.0     15.7250    -99999.0    -99999.0    -99999.0     17.3885     120.000     24.8649
     209.394    -99999.0    0.552000     20.3498     128.000    -99999.0     0.00000     1.00000    -1.00000     17.6772     118.240     18.2054
     209.558     6.36440    0.549281     20.3498     128.000     16.0779     0.00000     1.00000    -1.00000     17.7165     119.760     16.3462
     209.722     6.43319    0.554116     20.3498     128.000     16.2483     0.00000     1.00000    -1.00000     17.7887     120.000     16.2162
     209.886     6.56876    0.549527     20.3498     128.000     16.5842     0.00000     1.00000    -1.00000     17.7986     120.879     24.7709
     210.050     6.29674    -99999.0    -99999.0    -99999.0     15.9102    -99999.0    -99999.0    -99999.0     17.8707     121.000     25.9459
     210.214     6.12219    0.555000     20.3498     128.000     15.4777     0.00000     1.00000    -1.00000     17.8806     118.364     18.3464
     210.378    -99999.0    0.559750     20.3498     128.000    -99999.0     0.00000     1.00000    -1.00000     17.7365     118.000     17.2973
     210.542     6.09447    0.559287     20.3498     128.000     15.4090     0.00000     1.00000    -1.00000     17.7165     119.756     17.2973
     210.706     6.08304    0.562746     20.3498     128.000     15.3807     0.00000     1.00000    -1.00000     17.7165     120.000     17.2973
     210.870     6.07760    0.562967     20.3498     128.000     15.3672     0.00000     1.00000    -1.00000     17.5725     120.000     23.9398
     211.034     6.07760    -99999.0    -99999.0    -99999.0     15.3672    -99999.0    -99999.0    -99999.0     17.5525     120.000     24.8649
     211.198     6.07760    0.552000     20.3498     128.000     15.3672     0.00000     1.00000    -1.00000     17.5525     118.245     19.1742
     211.362    -99999.0    0.553354     20.3498     128.000    -99999.0     0.00000     1.00000    -1.00000     17.5525     118.877     14.5859
     211.526     6.07760    0.556031     20.3498     128.000     15.3672     0.00000     1.00000    -1.00000     17.7682     119.000     14.0541
     211.690     6.08902    0.559706     20.3498     128.000     15.3955     0.00000     1.00000    -1.00000     17.7986     120.753     22.5826
     211.854     6.09447    0.560324     20.3498     128.000     15.4090     0.00000     1.00000    -1.00000     17.7986     121.000     23.7838
     212.018     6.08307    -99999.0    -99999.0    -99999.0     15.3808    -99999.0    -99999.0    -99999.0     17.5830     119.248     19.9953
     212.182     6.06620    0.565000     20.5670     128.000     15.3390     0.00000     1.00000    -1.00000     17.5525     119.000     19.4595
     212.346     6.06073    0.570405     20.4202     128.000     15.3254     0.00000     1.00000    -1.00000     17.4807     118.125     14.7270
     212.510     6.06073    0.563546     20.3498     128.000     15.3254     0.00000     1.00000    -1.00000     17.4705     118.000     14.0541
     212.674     6.07212    0.561025     20.3498     128.000     15.3536     0.00000     1.00000    -1.00000     17.2552     119.750     18.7832
     212.838     6.07760    0.557952     20.3498     128.000     15.3672     0.00000     1.00000    -1.00000     17.2244     120.000     24.1876
     213.002     6.07760    0.555326     20.4963     128.000     15.3672     0.00000     1.00000    -1.00000     17.5113     120.000     24.8649
     213.166     6.07760    0.549606     20.4205     128.000     15.3672     0.00000     1.00000    -1.00000     17.6959     118.252     16.3599
     213.330    -99999.0    0.551718     20.3498     128.000    -99999.0     0.00000     1.00000    -1.00000     17.7165     118.000     15.1351
     213.494     6.06073    0.552653     20.3498     128.000     15.3254     0.00000     1.00000    -1.00000     17.8599     119.747     17.9686
     213.658     6.08346    0.554020     20.3498     128.000     15.3817     0.00000     1.00000    -1.00000     17.8806     120.000     18.3784
     213.822     6.24211    0.554327     20.4960     128.000     15.7748     0.00000     1.00000    -1.00000     17.8090     120.873     24.0424
     213.986     6.39327    -99999.0    -99999.0    -99999.0     16.1494    -99999.0    -99999.0    -99999.0     17.7986     121.000     24.8649
     214.150     6.64752    0.560000     20.5670     128.000     16.7794     0.00000     1.00000    -1.00000     17.7270     118.382     17.3169
     214.314     6.42352    0.560000     20.4209     128.000     16.2244     0.00000     1.00000    -1.00000     17.7165     118.872     15.2732
     214.478     6.17248    0.560672     20.3498     128.000     15.6023     0.00000     1.00000    -1.00000     17.5735     119.000     15.1351
     214.642     6.11688    0.559656     20.3498     128.000     15.4645     0.00000     1.00000    -1.00000     17.4810     120.744     19.8478
     214.806     6.11135    0.554298     20.3498     128.000     15.4508     0.00000     1.00000    -1.00000     17.4705     121.000     20.5405
     214.970    -99999.0    0.552000     20.3498     128.000    -99999.0     0.00000     1.00000    -1.00000     17.6134     120.129     24.3086
     215.134     6.21257    0.554013     20.3498     128.000     15.7016     0.00000     1.00000    -1.00000     17.6345     120.000     24.8649
     215.298     6.31442    0.555671     20.3498     128.000     15.9540     0.00000     1.00000    -1.00000     17.9202     118.258     16.3913
