#------------------------------------------------------------
~VERSION INFORMATION
VERS.               2.0  :CWLS LOG ASCII STANDARD - VERSION 2.0
WRAP.                NO  :ONE LINE PER DEPTH STEP
#------------------------------------------------------------
~WELL INFORMATION
STRT.FT         4.22960  :FIRST INDEX VALUE
STOP.FT         269.254  :LAST INDEX VALUE
STEP.FT         0.00000  :STEP
NULL.            -99999  :NULL VALUE
COMP.                    :
WELL. CARLTON (DARCY TW)  :WELL
FLD.                     :
LOC.                     :
SRVC.                    :
CTRY.               USA  :CTRY
STAT.         MINNESOTA  :STAT
CNTY.              RICE  :CNTY
DATE.        04/22/2025  :DATE
API.             886189  :API
#------------------------------------------------------------
~CURVE INFORMATION
DEPT.FT                  :DEPTH
CALIPER-IN.IN            :Caliper-In
TIME.SEC                 :Time
TCPU.'C                  :TCPU
MOTOR.                   :Motor
CALIPER-CM.CM            :Caliper-Cm
OPEN.                    :Open
CLOSE.                   :Close
ARM.                     :Arm
SPEED.FT/MIN             :Speed
TOOLPOWERVOLTAGE.V       :ToolPowerVoltage
TOOLPOWERCURRENT.MA      :ToolPowerCurrent
#------------------------------------------------------------
~PARAMETER INFORMATION
CASB1.               27  :CASB1
CASB2.              270  :CASB2
CASB3.                   :CASB3
CASB4.                   :CASB4
CASB5.                   :CASB5
CASC1.     STEEL CASING  :CASC1
CASC2.        OPEN HOLE  :CASC2
CASC3.                   :CASC3
CASC4.                   :CASC4
CASC5.                   :CASC5
CASD1.               6"  :CASD1
CASD2.               6"  :CASD2
CASD3.                   :CASD3
CASD4.                   :CASD4
CASD5.                   :CASD5
CAST1.                0  :CAST1
CAST2.               27  :CAST2
CAST3.                   :CAST3
CAST4.                   :CAST4
CAST5.                   :CAST5
DRDP.               275  :DRDP
EGL.             948 L1  :EGL
FTYP.             WATER  :FTYP
LDIR.                UP  :LDIR
LMF.             GROUND  :LMF
LOTD.               269  :LOTD
MGSCUTTINGSNO.      N/A  :MGSCUTTINGSNO
RANG.                19  :RANG
RATE.            15 FPM  :RATE
RECB.             MAYER  :RECB
RMKS.                    :RMKS
RNGD.                 W  :RNGD
RUN.                  1  :RUN
SECT.                31  :SECT
STOP_FT.            269  :STOP.FT
STRT_FT.              4  :STRT.FT
SUBS.            CDCDBB  :SUBS
SWL.                 24  :SWL
TOOL. CALIPER (GO4-CAL-PLUG-7090)  :TOOL
TOWN.               112  :TOWN
#------------------------------------------------------------
~OTHER
#------------------------------------------------------------
~A  DEPT[FT]  CALIPER-IN        TIME        TCPU       MOTOR  CALIPER-CM        OPEN       CLOSE         ARM       SPEED  TOOLPOWERV  TOOLPOWERC
# ...
     22.5976    -99999.0    0.551028     20.1325     128.000    -99999.0     0.00000     1.00000    -1.00000     18.0844     120.485     23.3803
     22.7616     6.24631    0.549057     20.1325     128.000     15.7852     0.00000     1.00000    -1.00000     17.8806     118.000     16.2162
     22.9256     6.26269    0.546087     20.1325     128.000     15.8258     0.00000     1.00000    -1.00000     17.8806     118.171     16.0313
     23.0896     6.24680    0.542117     20.1325     128.000     15.7865     0.00000     1.00000    -1.00000     17.8806     119.000     15.1351
     23.2536    -99999.0    -99999.0    -99999.0    -99999.0    -99999.0    -99999.0    -99999.0    -99999.0     17.9086     119.341     16.9790
     23.4176    -99999.0    0.539000     20.1325     128.000    -99999.0     0.00000     1.00000    -1.00000     18.0446     121.000     25.9459
     23.5816     6.26318    0.539000     20.1325     128.000     15.8270     0.00000     1.00000    -1.00000     18.0725     120.830     24.2914
     23.7456     6.24682    0.539000     20.1325     128.000     15.7865     0.00000     1.00000    -1.00000     18.2087     120.000     16.2162
     23.9096    -99999.0    -99999.0    -99999.0    -99999.0    -99999.0    -99999.0    -99999.0    -99999.0     18.2087     120.000     16.2162
     24.0736     6.26318    -99999.0    -99999.0    -99999.0     15.8270    -99999.0    -99999.0    -99999.0     18.1948     120.169     17.6803
     24.2376     6.26318    0.552000     20.1325     128.000     15.8270     0.00000     1.00000    -1.00000     18.1266     121.000     24.8649
     24.4016     6.26318    0.551031     20.1325     128.000     15.8270     0.00000     1.00000    -1.00000     18.0713     120.662     23.7701
     24.5656     6.26318    -99999.0    -99999.0    -99999.0     15.8270    -99999.0    -99999.0    -99999.0     17.7986     119.000     18.3784
     24.7296     6.26318    0.550000     20.1325     128.000     15.8270     0.00000     1.00000    -1.00000     17.8124     119.000     17.6506
     24.8936     6.26318    0.543223     20.3428     128.000     15.8270     0.00000     1.00000    -1.00000     17.8806     119.000     14.0541
     25.0576     6.26318    0.542032     20.1395     128.000     15.8270     0.00000     1.00000    -1.00000     17.9081     119.336     15.3240
     25.2216     6.26318    0.541032     20.1325     128.000     15.8270     0.00000     1.00000    -1.00000     18.0446     121.000     21.6216
     25.3856     6.26318    0.539065     20.1325     128.000     15.8270     0.00000     1.00000    -1.00000     18.0720     120.666     21.8024
     25.5496     6.26318    0.540934     20.1325     128.000     15.8270     0.00000     1.00000    -1.00000     18.2087     119.000     22.7027
     25.7136     6.26318    0.541000     20.1325     128.000     15.8270     0.00000     1.00000    -1.00000     18.2087     118.833     21.2608
     25.8776     6.26318    0.543900     20.1325     128.000     15.8270     0.00000     1.00000    -1.00000     18.1950     118.000     14.0541
     26.0416     6.26318    0.547865     20.1325     128.000     15.8270     0.00000     1.00000    -1.00000     18.1266     118.166     14.2337
     26.2056     6.26318    0.551864     20.1325     128.000     15.8270     0.00000     1.00000    -1.00000     18.0994     119.332     16.7495
     26.3696     6.26318    0.552966     20.1325     128.000     15.8270     0.00000     1.00000    -1.00000     17.9626     121.000     24.8649
     26.5336     6.26318    0.552034     20.1325     128.000     15.8270     0.00000     1.00000    -1.00000     17.9355     120.835     24.6860
     26.6976     6.26318    0.545243     20.1325     128.000     15.8270     0.00000     1.00000    -1.00000     17.7986     120.000     23.7838
     26.8616     6.26318    0.543070     20.1325     128.000     15.8270     0.00000     1.00000    -1.00000     17.8256     119.670     22.1790
     27.0256     6.26318    0.544930     20.1325     128.000     15.8270     0.00000     1.00000    -1.00000     17.9626     118.000     14.0541
     27.1896     6.26318    0.541142     20.1325     128.000     15.8270     0.00000     1.00000    -1.00000     17.9896     118.329     14.7652
     27.3536     6.29571    0.541000     20.1325     128.000     15.9077     0.00000     1.00000    -1.00000     18.1266     120.000     18.3784
     27.5176     6.58964    0.540036     20.1325     128.000     16.6360     0.00000     1.00000    -1.00000     18.1266     120.000     19.6193
     27.6816     6.43802    0.542891     20.1325     128.000     16.2603     0.00000     1.00000    -1.00000     18.1401     120.000     25.9459
     27.8456    -99999.0    0.549744     20.1325     128.000    -99999.0     0.00000     1.00000    -1.00000     18.2087     119.837     24.1799
     28.0096     6.56685    0.547111     20.1325     128.000     16.5795     0.00000     1.00000    -1.00000     18.1819     119.000     15.1351
     28.1736     6.55061    0.552778     20.1325     128.000     16.5393     0.00000     1.00000    -1.00000     18.0446     119.000     15.1351
     28.3376     6.45254    0.551075     20.1325     128.000     16.2963     0.00000     1.00000    -1.00000     18.0046     119.163     15.8386
     28.5016     6.51370    -99999.0    -99999.0    -99999.0     16.4478    -99999.0    -99999.0    -99999.0     17.7986     120.000     19.4595
     28.6656     6.54870    0.544000     20.1325     128.000     16.5345     0.00000     1.00000    -1.00000     17.8251     120.000     20.5108
     28.8296     6.74471    0.537267     20.3415     128.000     17.0202     0.00000     1.00000    -1.00000     17.9626     120.000     25.9459
     28.9936     6.86598    0.537000     20.1408     128.000     17.3207     0.00000     1.00000    -1.00000     17.9759     119.677     24.3736
     29.1576     6.57858    0.539884     20.1325     128.000     16.6086     0.00000     1.00000    -1.00000     18.0843     118.000     16.2162
     29.3216    -99999.0    0.539039     20.1325     128.000    -99999.0     0.00000     1.00000    -1.00000     18.2907     118.161     16.0421
     29.4856     7.00548    0.541883     20.1325     128.000     17.6664     0.00000     1.00000    -1.00000     18.2907     119.000     15.1351
     29.6496     6.71379    0.543921     20.1325     128.000     16.9436     0.00000     1.00000    -1.00000     18.2907     119.321     16.0033
     29.8136     6.55601    0.545921     20.1325     128.000     16.5527     0.00000     1.00000    -1.00000     18.2512     121.000     20.5405
     29.9776     6.56618    -99999.0    -99999.0    -99999.0     16.5778    -99999.0    -99999.0    -99999.0     18.0446     120.680     20.7137
     30.1416     6.72877    0.551000     20.1325     128.000     16.9807     0.00000     1.00000    -1.00000     18.0315     119.000     21.6216
     30.3056     6.94601    0.552919     20.1325     128.000     17.5190     0.00000     1.00000    -1.00000     17.9626     119.000     21.6216
     30.4696     7.44039    0.546285     20.1325     128.000     18.7440     0.00000     1.00000    -1.00000     17.9234     119.000     20.4159
     30.6336    -99999.0    0.546000     20.1325     128.000    -99999.0     0.00000     1.00000    -1.00000     17.7165     119.000     14.0541
     30.7976     7.89962    0.543124     20.1325     128.000     19.8820     0.00000     1.00000    -1.00000     17.7817     119.159     14.9127
     30.9616     6.58979    0.538207     20.1325     128.000     16.6364     0.00000     1.00000    -1.00000     18.1266     120.000     19.4595
     31.1256     6.46844    0.546625     20.1325     128.000     16.3357     0.00000     1.00000    -1.00000     18.1266     120.000     20.4859
     31.2896     6.43330    -99999.0    -99999.0    -99999.0     16.2486    -99999.0    -99999.0    -99999.0     18.1396     120.000     25.9459
     31.4536     6.51267    0.543000     20.1325     128.000     16.4453     0.00000     1.00000    -1.00000     18.2087     119.684     24.0700
     31.6176     6.72624    0.548745     20.1325     128.000     16.9745     0.00000     1.00000    -1.00000     18.1828     118.000     14.0541
