#------------------------------------------------------------
~VERSION INFORMATION
VERS.               2.0  :CWLS LOG ASCII STANDARD - VERSION 2.0
WRAP.                NO  :ONE LINE PER DEPTH STEP
#------------------------------------------------------------
~WELL INFORMATION
STRT.FT         4.22960  :FIRST INDEX VALUE
STOP.FT         269.254  :LAST INDEX VALUE
STEP.FT         0.00000  :STEP
NULL.            -99999  :NULL VALUE
COMP.                    :
WELL. CARLTON (DARCY TW)  :WELL
FLD.                     :
LOC.                     :
SRVC.                    :
CTRY.               USA  :CTRY
STAT.         MINNESOTA  :STAT
CNTY.              RICE  :CNTY
DATE.        04/22/2025  :DATE
API.             886189  :API
#------------------------------------------------------------
~CURVE INFORMATION
DEPT.FT                  :DEPTH
CALIPER-IN.IN            :Caliper-In
TIME.SEC                 :Time
TCPU.'C                  :TCPU
MOTOR.                   :Motor
CALIPER-CM.CM            :Caliper-Cm
OPEN.                    :Open
CLOSE.                   :Close
ARM.                     :Arm
SPEED.FT/MIN             :Speed
TOOLPOWERVOLTAGE.V       :ToolPowerVoltage
TOOLPOWERCURRENT.MA      :ToolPowerCurrent
#------------------------------------------------------------
~PARAMETER INFORMATION
CASB1.               27  :CASB1
CASB2.              270  :CASB2
CASB3.                   :CASB3
CASB4.                   :CASB4
CASB5.                   :CASB5
CASC1.     STEEL CASING  :CASC1
CASC2.        OPEN HOLE  :CASC2
CASC3.                   :CASC3
CASC4.                   :CASC4
CASC5.                   :CASC5
CASD1.               6"  :CASD1
CASD2.               6"  :CASD2
CASD3.                   :CASD3
CASD4.                   :CASD4
CASD5.                   :CASD5
CAST1.                0  :CAST1
CAST2.               27  :CAST2
CAST3.                   :CAST3
CAST4.                   :CAST4
CAST5.                   :CAST5
DRDP.               275  :DRDP
EGL.             948 L1  :EGL
FTYP.             WATER  :FTYP
LDIR.                UP  :LDIR
LMF.             GROUND  :LMF
LOTD.               269  :LOTD
MGSCUTTINGSNO.      N/A  :MGSCUTTINGSNO
RANG.                19  :RANG
RATE.            15 FPM  :RATE
RECB.             MAYER  :RECB
RMKS.                    :RMKS
RNGD.                 W  :RNGD
RUN.                  1  :RUN
SECT.                31  :SECT
STOP_FT.            269  :STOP.FT
STRT_FT.              4  :STRT.FT
SUBS.            CDCDBB  :SUBS
SWL.                 24  :SWL
TOOL. CALIPER (GO4-CAL-PLUG-7090)  :TOOL
TOWN.               112  :TOWN
#------------------------------------------------------------
~OTHER
#------------------------------------------------------------
~A  DEPT[FT]  CALIPER-IN        TIME        TCPU       MOTOR  CALIPER-CM        OPEN       CLOSE         ARM       SPEED  TOOLPOWERV  TOOLPOWERC
# ...
     261.382     6.27671    0.568000     20.7842     128.000     15.8606     0.00000     1.00000    -1.00000     17.0604     118.000     14.0541
     261.546     6.33387    0.568599     20.7842     128.000     16.0022     0.00000     1.00000    -1.00000     17.0604     119.597     18.3708
     261.710     6.31061    0.576181     20.7842     128.000     15.9446     0.00000     1.00000    -1.00000     17.0604     120.000     19.4595
     261.874     6.19255    0.575616     20.7842     128.000     15.6520     0.00000     1.00000    -1.00000     17.2568     120.000     23.7737
     262.038     6.14509    0.579773     20.7842     128.000     15.5344     0.00000     1.00000    -1.00000     17.1756     120.000     24.8649
     262.202     6.25600    0.586195     20.7842     128.000     15.8092     0.00000     1.00000    -1.00000     17.1424     118.405     16.2416
     262.366     6.20976    0.622240     20.7842     128.000     15.6947     0.00000     1.00000    -1.00000     16.9462     118.000     14.0541
     262.530     6.11814    0.602416     20.7842     128.000     15.4677     0.00000     1.00000    -1.00000     16.8963     118.797     14.0541
     262.694     6.11135    0.571210     20.7842     128.000     15.4508     0.00000     1.00000    -1.00000     15.9814     119.797     22.6677
     262.858     6.11135    0.568210     20.7842     128.000     15.4508     0.00000     1.00000    -1.00000     16.8586     120.000     24.8649
     263.022     6.11135    0.568789     20.7842     128.000     15.4508     0.00000     1.00000    -1.00000     17.1424     120.000     24.8649
     263.186     6.13145    0.568808     20.7842     128.000     15.5006     0.00000     1.00000    -1.00000     17.2730     120.000     24.8649
     263.350     6.18529    0.567404     20.7842     128.000     15.6340     0.00000     1.00000    -1.00000     17.3064     118.408     17.9821
     263.514     6.23266    0.567000     20.7842     128.000     15.7514     0.00000     1.00000    -1.00000     17.3064     119.591     17.0763
     263.678     6.19609    0.572954     20.7842     128.000     15.6608     0.00000     1.00000    -1.00000     17.3064     120.000     17.2973
     263.842    -99999.0    0.575810     20.7842     128.000    -99999.0     0.00000     1.00000    -1.00000     17.3064     120.000     24.1735
     264.006     6.21257    0.577379     20.7842     128.000     15.7016     0.00000     1.00000    -1.00000     17.1761     120.000     25.9459
     264.170     6.22260    0.579000     20.7842     128.000     15.7265     0.00000     1.00000    -1.00000     17.1424     118.411     17.3557
     264.334     6.22944    0.578406     20.7842     128.000     15.7434     0.00000     1.00000    -1.00000     17.0772     118.000     15.1351
     264.498     6.22944    -99999.0    -99999.0    -99999.0     15.7434    -99999.0    -99999.0    -99999.0     17.0604     119.588     17.7103
     264.662     6.23946    0.577000     20.7842     128.000     15.7683     0.00000     1.00000    -1.00000     17.0604     120.794     24.3858
     264.826     6.28635    0.574033     20.7842     128.000     15.8845     0.00000     1.00000    -1.00000     17.0604     121.000     25.9459
     264.990     6.30378    0.569034     20.7842     128.000     15.9277     0.00000     1.00000    -1.00000     16.9953     119.414     22.5158
     265.154     6.34694    0.566407     20.7842     128.000     16.0346     0.00000     1.00000    -1.00000     17.1735     119.000     21.6216
     265.318     6.25128    0.567186     20.7842     128.000     15.7976     0.00000     1.00000    -1.00000     17.2244     118.207     18.1940
     265.482     6.17195    0.570370     20.7842     128.000     15.6010     0.00000     1.00000    -1.00000     17.3544     118.000     17.2973
     265.646     6.15885    0.562524     20.7842     128.000     15.5685     0.00000     1.00000    -1.00000     17.3885     119.584     16.4409
     265.810    -99999.0    0.546528     20.7842     128.000    -99999.0     0.00000     1.00000    -1.00000     17.3235     120.792     23.0660
     265.974    -99999.0    0.540592     20.7842     128.000    -99999.0     0.00000     1.00000    -1.00000     17.3064     121.000     24.8649
     266.138     6.22944    0.540408     20.7842     128.000     15.7434     0.00000     1.00000    -1.00000     17.6310     119.417     20.5869
     266.302     6.24939    0.540591     20.7842     128.000     15.7929     0.00000     1.00000    -1.00000     18.1059     119.000     19.4595
     266.466     6.25321    -99999.0    -99999.0    -99999.0     15.8023    -99999.0    -99999.0    -99999.0     18.2087     119.000     16.0391
     266.630     6.22638    -99999.0    -99999.0    -99999.0     15.7359    -99999.0    -99999.0    -99999.0     18.2735     119.000     15.1351
     266.794     6.17272    0.531000     20.7842     128.000     15.6029     0.00000     1.00000    -1.00000     18.2907     120.581     21.9720
     266.958    -99999.0    0.515652     20.7842     128.000    -99999.0     0.00000     1.00000    -1.00000     18.1611     121.000     23.7838
     267.122     6.16196    0.495560     20.7842     128.000     15.5762     0.00000     1.00000    -1.00000     18.1266     118.630     19.5134
     267.286    -99999.0    0.491949     20.7842     128.000    -99999.0     0.00000     1.00000    -1.00000     18.9040     118.000     18.3784
     267.450     6.24631    0.501664     20.7842     128.000     15.7852     0.00000     1.00000    -1.00000     19.1109     119.579     16.6712
     267.614     6.29602    -99999.0    -99999.0    -99999.0     15.9084    -99999.0    -99999.0    -99999.0     19.8230     120.789     22.1892
     267.778    -99999.0    0.505000     20.7842     128.000    -99999.0     0.00000     1.00000    -1.00000     20.0131     121.000     23.7838
     267.942     8.16909    -99999.0    -99999.0    -99999.0     20.5819    -99999.0    -99999.0    -99999.0     19.4955     121.000     23.7838
     268.106    -99999.0    0.503000     20.7842     128.000    -99999.0     0.00000     1.00000    -1.00000     19.3570     120.211     24.6362
     268.270    -99999.0    0.506528     20.7842     128.000    -99999.0     0.00000     1.00000    -1.00000     19.5509     120.000     24.8649
     268.434    -99999.0    -99999.0    -99999.0    -99999.0    -99999.0    -99999.0    -99999.0    -99999.0     19.6030     118.424     17.2001
     268.598    -99999.0     1.06800     20.7842     128.000    -99999.0     0.00000     1.00000    -1.00000     19.4093     118.000     15.1351
     268.762    -99999.0    -99999.0    -99999.0    -99999.0    -99999.0    -99999.0    -99999.0    -99999.0     19.3570     118.787     15.1351
     268.926    -99999.0    -99999.0    -99999.0    -99999.0    -99999.0    -99999.0    -99999.0    -99999.0     16.0649     119.000     15.1351
     269.090    -99999.0    -99999.0    -99999.0    -99999.0    -99999.0    -99999.0    -99999.0    -99999.0     15.1739     120.574     21.9400
     269.254    -99999.0    -99999.0    -99999.0    -99999.0    -99999.0    -99999.0    -99999.0    -99999.0     8.85161     118.640     16.1309
