#------------------------------------------------------------
~VERSION INFORMATION
VERS.               2.0  :CWLS LOG ASCII STANDARD - VERSION 2.0
WRAP.                NO  :ONE LINE PER DEPTH STEP
#------------------------------------------------------------
~WELL INFORMATION
STRT.FT         4.22960  :FIRST INDEX VALUE
STOP.FT         269.254  :LAST INDEX VALUE
STEP.FT         0.00000  :STEP
NULL.            -99999  :NULL VALUE
COMP.                    :
WELL. CARLTON (DARCY TW)  :WELL
FLD.                     :
LOC.                     :
SRVC.                    :
CTRY.               USA  :CTRY
STAT.         MINNESOTA  :STAT
CNTY.              RICE  :CNTY
DATE.        04/22/2025  :DATE
API.             886189  :API
#------------------------------------------------------------
~CURVE INFORMATION
DEPT.FT                  :DEPTH
CALIPER-IN.IN            :Caliper-In
TIME.SEC                 :Time
TCPU.'C                  :TCPU
MOTOR.                   :Motor
CALIPER-CM.CM            :Caliper-Cm
OPEN.                    :Open
CLOSE.                   :Close
ARM.                     :Arm
SPEED.FT/MIN             :Speed
TOOLPOWERVOLTAGE.V       :ToolPowerVoltage
TOOLPOWERCURRENT.MA      :ToolPowerCurrent
#------------------------------------------------------------
~PARAMETER INFORMATION
CASB1.               27  :CASB1
CASB2.              270  :CASB2
CASB3.                   :CASB3
CASB4.                   :CASB4
CASB5.                   :CASB5
CASC1.     STEEL CASING  :CASC1
CASC2.        OPEN HOLE  :CASC2
CASC3.                   :CASC3
CASC4.                   :CASC4
CASC5.                   :CASC5
CASD1.               6"  :CASD1
CASD2.               6"  :CASD2
CASD3.                   :CASD3
CASD4.                   :CASD4
CASD5.                   :CASD5
CAST1.                0  :CAST1
CAST2.               27  :CAST2
CAST3.                   :CAST3
CAST4.                   :CAST4
CAST5.                   :CAST5
DRDP.               275  :DRDP
EGL.             948 L1  :EGL
FTYP.             WATER  :FTYP
LDIR.                UP  :LDIR
LMF.             GROUND  :LMF
LOTD.               269  :LOTD
MGSCUTTINGSNO.      N/A  :MGSCUTTINGSNO
RANG.                19  :RANG
RATE.            15 FPM  :RATE
RECB.             MAYER  :RECB
RMKS.                    :RMKS
RNGD.                 W  :RNGD
RUN.                  1  :RUN
SECT.                31  :SECT
STOP_FT.            269  :STOP.FT
STRT_FT.              4  :STRT.FT
SUBS.            CDCDBB  :SUBS
SWL.                 24  :SWL
TOOL. CALIPER (GO4-CAL-PLUG-7090)  :TOOL
TOWN.               112  :TOWN
#------------------------------------------------------------
~OTHER
#------------------------------------------------------------
~A  DEPT[FT]  CALIPER-IN        TIME        TCPU       MOTOR  CALIPER-CM        OPEN       CLOSE         ARM       SPEED  TOOLPOWERV  TOOLPOWERC
# ...
     160.358    -99999.0    0.557757     20.2969     128.000    -99999.0     0.00000     1.00000    -1.00000     17.4705     120.000     17.2973
     160.522     6.07760    0.553462     20.3498     128.000     15.3672     0.00000     1.00000    -1.00000     17.4705     120.956     25.5685
     160.686     6.07760    -99999.0    -99999.0    -99999.0     15.3672    -99999.0    -99999.0    -99999.0     17.6273     118.132     16.6431
     160.850     6.07760    -99999.0    -99999.0    -99999.0     15.3672    -99999.0    -99999.0    -99999.0     17.6345     118.000     16.2162
     161.014     6.07760    -99999.0    -99999.0    -99999.0     15.3672    -99999.0    -99999.0    -99999.0     17.7913     119.911     17.2493
     161.178     6.07760    0.552000     20.3498     128.000     15.3672     0.00000     1.00000    -1.00000     17.7986     120.000     17.2973
     161.342     6.15402    0.557285     20.1857     128.000     15.5566     0.00000     1.00000    -1.00000     17.7986     120.955     25.5566
     161.506    -99999.0    0.559000     20.2965     128.000    -99999.0     0.00000     1.00000    -1.00000     17.8769     121.000     25.9459
     161.670     6.09447    0.562018     20.3498     128.000     15.4090     0.00000     1.00000    -1.00000     17.8806     118.137     17.6912
     161.834     6.13265    0.566771     20.3498     128.000     15.5036     0.00000     1.00000    -1.00000     17.5675     118.000     17.2973
     161.998     6.10693    0.564984     20.3498     128.000     15.4399     0.00000     1.00000    -1.00000     17.5525     118.954     16.2660
     162.162     6.08176    -99999.0    -99999.0    -99999.0     15.3775    -99999.0    -99999.0    -99999.0     17.4743     120.908     24.4650
     162.326     6.07760    0.551000     20.1325     128.000     15.3672     0.00000     1.00000    -1.00000     17.4705     121.000     24.8649
     162.490    -99999.0    0.556273     20.1325     128.000    -99999.0     0.00000     1.00000    -1.00000     17.3923     119.094     21.7733
     162.654     6.07760    0.557247     20.1325     128.000     15.3672     0.00000     1.00000    -1.00000     17.6229     119.000     21.6216
     162.818     6.07760    0.558506     20.1325     128.000     15.3672     0.00000     1.00000    -1.00000     17.6345     118.047     15.4415
     162.982     6.07760    0.556742     20.2960     128.000     15.3672     0.00000     1.00000    -1.00000     17.7908     118.000     15.1351
     163.146     6.07760    -99999.0    -99999.0    -99999.0     15.3672    -99999.0    -99999.0    -99999.0     17.7986     119.904     19.2529
     163.310     6.07760    0.564000     20.1325     128.000     15.3672     0.00000     1.00000    -1.00000     17.6424     120.000     19.4595
     163.474     6.07760    0.563248     20.2958     128.000     15.3672     0.00000     1.00000    -1.00000     17.6345     120.000     25.6327
     163.638     6.07760    0.562248     20.3498     128.000     15.3672     0.00000     1.00000    -1.00000     17.4784     118.097     17.7170
     163.802     6.07760    0.563503     20.1866     128.000     15.3672     0.00000     1.00000    -1.00000     17.4705     118.000     17.2973
     163.966     6.07760    0.558743     20.1325     128.000     15.3672     0.00000     1.00000    -1.00000     17.4705     118.951     14.2129
     164.130     6.07760    0.557000     20.1325     128.000     15.3672     0.00000     1.00000    -1.00000     17.5485     119.000     14.0541
     164.294     6.09026    0.552497     20.2956     128.000     15.3986     0.00000     1.00000    -1.00000     17.5525     120.901     25.3571
     164.458     6.10713    0.551000     20.3498     128.000     15.4404     0.00000     1.00000    -1.00000     17.6304     121.000     25.9459
     164.622     6.09869    0.551750     20.3498     128.000     15.4195     0.00000     1.00000    -1.00000     17.6345     119.100     20.8115
     164.786     6.08183    0.553499     20.1869     128.000     15.3777     0.00000     1.00000    -1.00000     17.8682     119.000     20.5405
     164.950     6.09025    0.554749     20.2953     128.000     15.3985     0.00000     1.00000    -1.00000     17.8806     119.000     14.3822
     165.114     6.08184    0.557997     20.3498     128.000     15.3777     0.00000     1.00000    -1.00000     17.8027     120.898     20.2105
     165.278     6.07760    0.559749     20.3498     128.000     15.3672     0.00000     1.00000    -1.00000     17.7207     121.000     20.5405
     165.442     6.07760    0.562246     20.3498     128.000     15.3672     0.00000     1.00000    -1.00000     17.7165     119.103     22.5917
     165.606     6.07760    0.563748     20.3498     128.000     15.3672     0.00000     1.00000    -1.00000     17.5610     119.000     22.7027
     165.770     6.07760    0.564000     20.3498     128.000     15.3672     0.00000     1.00000    -1.00000     17.5525     118.052     13.4771
     165.934     6.07760    0.558016     20.3498     128.000     15.3672     0.00000     1.00000    -1.00000     17.4747     118.000     12.9730
     166.098     6.07760    0.555252     20.3498     128.000     15.3672     0.00000     1.00000    -1.00000     17.4705     120.843     20.1445
     166.262     6.07760    0.555000     20.3498     128.000     15.3672     0.00000     1.00000    -1.00000     17.5482     121.000     20.5405
     166.426     6.11542    0.553506     20.1874     128.000     15.4609     0.00000     1.00000    -1.00000     17.5525     120.053     24.6359
     166.590     6.12822    0.556734     20.2948     128.000     15.4926     0.00000     1.00000    -1.00000     17.7078     118.106     14.6282
     166.754     6.17860    0.555760     20.3498     128.000     15.6175     0.00000     1.00000    -1.00000     17.7942     118.000     14.0541
     166.918    -99999.0    0.558732     20.3498     128.000    -99999.0     0.00000     1.00000    -1.00000     17.7986     120.839     21.2157
     167.082     6.34753    0.562984     20.3498     128.000     16.0361     0.00000     1.00000    -1.00000     17.6434     121.000     21.6216
     167.246     6.17139    0.561762     20.3498     128.000     15.5996     0.00000     1.00000    -1.00000     17.6345     120.054     24.6889
     167.410    -99999.0    0.564728     20.3498     128.000    -99999.0     0.00000     1.00000    -1.00000     17.5570     120.000     24.8649
     167.574    -99999.0    -99999.0    -99999.0    -99999.0    -99999.0    -99999.0    -99999.0    -99999.0     17.5525     119.055     17.7112
     167.738     6.07760    0.557000     20.3498     128.000     15.3672     0.00000     1.00000    -1.00000     17.3975     119.000     17.2973
     167.902     6.10274    0.554765     20.3498     128.000     15.4295     0.00000     1.00000    -1.00000     17.3885     119.945     18.3187
     168.066     6.11135    -99999.0    -99999.0    -99999.0     15.4508    -99999.0    -99999.0    -99999.0     17.6208     119.056     22.4625
     168.230     6.24946    -99999.0    -99999.0    -99999.0     15.7931    -99999.0    -99999.0    -99999.0     17.7120     119.000     22.7027
     168.394     6.38478    0.553000     20.3498     128.000     16.1284     0.00000     1.00000    -1.00000     17.7165     119.000     22.7027
     168.558     6.61578    0.555231     20.3498     128.000     16.7008     0.00000     1.00000    -1.00000     17.7939     119.000     22.7027
     168.722     7.29957    0.554513     20.3498     128.000     18.3951     0.00000     1.00000    -1.00000     17.7986     118.056     14.5423
     168.886    -99999.0    0.558460     20.3498     128.000    -99999.0     0.00000     1.00000    -1.00000     17.7986     118.000     14.0541
     169.050     7.69717    0.562972     20.3498     128.000     19.3803     0.00000     1.00000    -1.00000     17.7986     6.71662    0.799964
     169.214    -99999.0    0.558800     20.3498     128.000    -99999.0     0.00000     1.00000    -1.00000     17.7212     0.00000     0.00000
     169.378     6.65120    0.565169     20.3498     128.000     16.7885     0.00000     1.00000    -1.00000     17.7165     114.049     19.3605
