#------------------------------------------------------------
~VERSION INFORMATION
VERS.               2.0  :CWLS LOG ASCII STANDARD - VERSION 2.0
WRAP.                NO  :ONE LINE PER DEPTH STEP
#------------------------------------------------------------
~WELL INFORMATION
STRT.FT         4.22960  :FIRST INDEX VALUE
STOP.FT         269.254  :LAST INDEX VALUE
STEP.FT         0.00000  :STEP
NULL.            -99999  :NULL VALUE
COMP.                    :
WELL. CARLTON (DARCY TW)  :WELL
FLD.                     :
LOC.                     :
SRVC.                    :
CTRY.               USA  :CTRY
STAT.         MINNESOTA  :STAT
CNTY.              RICE  :CNTY
DATE.        04/22/2025  :DATE
API.             886189  :API
#------------------------------------------------------------
~CURVE INFORMATION
DEPT.FT                  :DEPTH
CALIPER-IN.IN            :Caliper-In
TIME.SEC                 :Time
TCPU.'C                  :TCPU
MOTOR.                   :Motor
CALIPER-CM.CM            :Caliper-Cm
OPEN.                    :Open
CLOSE.                   :Close
ARM.                     :Arm
SPEED.FT/MIN             :Speed
TOOLPOWERVOLTAGE.V       :ToolPowerVoltage
TOOLPOWERCURRENT.MA      :ToolPowerCurrent
#------------------------------------------------------------
~PARAMETER INFORMATION
CASB1.               27  :CASB1
CASB2.              270  :CASB2
CASB3.                   :CASB3
CASB4.                   :CASB4
CASB5.                   :CASB5
CASC1.     STEEL CASING  :CASC1
CASC2.        OPEN HOLE  :CASC2
CASC3.                   :CASC3
CASC4.                   :CASC4
CASC5.                   :CASC5
CASD1.               6"  :CASD1
CASD2.               6"  :CASD2
CASD3.                   :CASD3
CASD4.                   :CASD4
CASD5.                   :CASD5
CAST1.                0  :CAST1
CAST2.               27  :CAST2
CAST3.                   :CAST3
CAST4.                   :CAST4
CAST5.                   :CAST5
DRDP.               275  :DRDP
EGL.             948 L1  :EGL
FTYP.             WATER  :FTYP
LDIR.                UP  :LDIR
LMF.             GROUND  :LMF
LOTD.               269  :LOTD
MGSCUTTINGSNO.      N/A  :MGSCUTTINGSNO
RANG.                19  :RANG
RATE.            15 FPM  :RATE
RECB.             MAYER  :RECB
RMKS.                    :RMKS
RNGD.                 W  :RNGD
RUN.                  1  :RUN
SECT.                31  :SECT
STOP_FT.            269  :STOP.FT
STRT_FT.              4  :STRT.FT
SUBS.            CDCDBB  :SUBS
SWL.                 24  :SWL
TOOL. CALIPER (GO4-CAL-PLUG-7090)  :TOOL
TOWN.               112  :TOWN
#------------------------------------------------------------
~OTHER
#------------------------------------------------------------
~A  DEPT[FT]  CALIPER-IN        TIME        TCPU       MOTOR  CALIPER-CM        OPEN       CLOSE         ARM       SPEED  TOOLPOWERV  TOOLPOWERC
     4.22960     6.24631    -99999.0    -99999.0    -99999.0     15.7852    -99999.0    -99999.0    -99999.0    -99999.0    -99999.0    -99999.0
     4.39360     6.24631    -99999.0    -99999.0    -99999.0     15.7852    -99999.0    -99999.0    -99999.0    -99999.0    -99999.0    -99999.0
     4.55760     6.24631    -99999.0    -99999.0    -99999.0     15.7852    -99999.0    -99999.0    -99999.0    -99999.0    -99999.0    -99999.0
     4.72160    -99999.0    -99999.0    -99999.0    -99999.0    -99999.0    -99999.0    -99999.0    -99999.0    -99999.0    -99999.0    -99999.0
     4.88560     6.24631    0.368000     20.1325     128.000     15.7852     0.00000     1.00000    -1.00000    -99999.0    -99999.0    -99999.0
     5.04960     6.26316    0.335034     20.1325     128.000     15.8270     0.00000     1.00000    -1.00000    -99999.0    -99999.0    -99999.0
     5.21360     6.24633    0.335999     20.1325     128.000     15.7853     0.00000     1.00000    -1.00000    -99999.0    -99999.0    -99999.0
     5.37760     6.24631    -99999.0    -99999.0    -99999.0     15.7852    -99999.0    -99999.0    -99999.0    -99999.0    -99999.0    -99999.0
     5.54160     6.26315    0.336000     20.1325     128.000     15.8270     0.00000     1.00000    -1.00000     29.2815     119.396     18.1447
     5.70560     6.24634    0.336000     20.1325     128.000     15.7853     0.00000     1.00000    -1.00000     29.2977     121.000     25.9459
     5.86960     6.24631    0.335002     20.1325     128.000     15.7852     0.00000     1.00000    -1.00000     29.3635     121.000     25.9459
     6.03360    -99999.0    0.334002     20.1325     128.000    -99999.0     0.00000     1.00000    -1.00000     29.3311     120.408     24.2384
     6.19760     6.24631    0.336992     20.1325     128.000     15.7852     0.00000     1.00000    -1.00000     29.1995     118.000     17.2973
     6.36160     6.26313    0.340988     20.1325     128.000     15.8269     0.00000     1.00000    -1.00000     29.1995     118.197     16.8715
     6.52560     6.26318    0.349971     20.1325     128.000     15.8270     0.00000     1.00000    -1.00000     28.9414     119.000     15.1351
     6.68960     6.26318    -99999.0    -99999.0    -99999.0     15.8270    -99999.0    -99999.0    -99999.0     27.8871     119.000     15.1351
     6.85360     6.26318    0.350000     20.1325     128.000     15.8270     0.00000     1.00000    -1.00000     27.8871     119.392     17.2558
     7.01760     6.26318    0.353984     20.1325     128.000     15.8270     0.00000     1.00000    -1.00000     27.8711     121.000     25.9459
     7.18160     6.26318    0.355992     20.1325     128.000     15.8270     0.00000     1.00000    -1.00000     27.8051     121.000     25.9459
     7.34560     6.26318    0.354009     20.1325     128.000     15.8270     0.00000     1.00000    -1.00000     27.8051     121.000     25.9459
     7.50960     6.26318    0.352010     20.1325     128.000     15.8270     0.00000     1.00000    -1.00000     27.8211     121.000     25.9459
     7.67360     6.26318    0.352995     20.1325     128.000     15.8270     0.00000     1.00000    -1.00000     27.8871     121.000     25.9459
     7.83760     6.26318    0.353000     20.1325     128.000     15.8270     0.00000     1.00000    -1.00000     27.8871     120.611     24.6831
     8.00160     6.26318    0.353000     20.1325     128.000     15.8270     0.00000     1.00000    -1.00000     27.8871     119.000     19.4595
     8.16560     6.26318    0.352006     20.1325     128.000     15.8270     0.00000     1.00000    -1.00000     27.8871     119.000     19.4595
     8.32960     6.26318    0.351006     20.1325     128.000     15.8270     0.00000     1.00000    -1.00000     27.8871     119.000     18.2018
     8.49360    -99999.0    0.352987     20.1325     128.000    -99999.0     0.00000     1.00000    -1.00000     27.8871     119.000     12.9730
     8.65760     6.26318    0.353000     20.1325     128.000     15.8270     0.00000     1.00000    -1.00000     27.8871     119.000     12.9730
     8.82160    -99999.0    0.353993     20.1325     128.000    -99999.0     0.00000     1.00000    -1.00000     27.8871     119.193     13.5992
     8.98560     6.24631    0.353007     20.1325     128.000     15.7852     0.00000     1.00000    -1.00000     27.8713     120.000     16.2162
     9.14960     6.26305    -99999.0    -99999.0    -99999.0     15.8267    -99999.0    -99999.0    -99999.0     27.8051     120.000     16.2162
     9.31360     6.26318    0.355000     20.3498     128.000     15.8270     0.00000     1.00000    -1.00000     27.8051     120.192     18.0875
     9.47760     6.24644    -99999.0    -99999.0    -99999.0     15.7856    -99999.0    -99999.0    -99999.0     27.7894     121.000     25.9459
     9.64160     6.24631    0.355000     20.1325     128.000     15.7852     0.00000     1.00000    -1.00000     27.7231     121.000     25.9459
     9.80560    -99999.0    0.353017     20.1325     128.000    -99999.0     0.00000     1.00000    -1.00000     27.7545     120.617     24.9107
     9.96960     6.24631    0.353000     20.1325     128.000     15.7852     0.00000     1.00000    -1.00000     27.8871     119.000     20.5405
     10.1336     6.26303    0.350027     20.1325     128.000     15.8267     0.00000     1.00000    -1.00000     27.8871     119.000     19.5079
     10.2976     6.24646    0.347028     20.1325     128.000     15.7856     0.00000     1.00000    -1.00000     27.9654     119.000     15.1351
     10.4616     6.24631    -99999.0    -99999.0    -99999.0     15.7852    -99999.0    -99999.0    -99999.0     28.2972     119.000     15.1351
     10.6256     6.24631    0.351000     20.1325     128.000     15.7852     0.00000     1.00000    -1.00000     28.2972     119.380     16.1635
     10.7896    -99999.0    0.351990     20.1325     128.000    -99999.0     0.00000     1.00000    -1.00000     28.2037     121.000     20.5405
     10.9536     6.26318    0.354970     20.1325     128.000     15.8270     0.00000     1.00000    -1.00000     27.8051     121.000     20.5405
     11.1176     6.24649    0.355990     20.1325     128.000     15.7857     0.00000     1.00000    -1.00000     27.8051     120.810     21.3603
     11.2816    -99999.0    0.354021     20.1325     128.000    -99999.0     0.00000     1.00000    -1.00000     27.8051     120.000     24.8649
     11.4456     6.26318    -99999.0    -99999.0    -99999.0     15.8270    -99999.0    -99999.0    -99999.0     27.8051     120.000     24.8649
     11.6096     6.24650    0.354000     20.1325     128.000     15.7857     0.00000     1.00000    -1.00000     27.8051     119.622     23.2323
     11.7736     6.24631    0.354000     20.3473     128.000     15.7852     0.00000     1.00000    -1.00000     27.8051     118.000     16.2162
     11.9376     6.24631    -99999.0    -99999.0    -99999.0     15.7852    -99999.0    -99999.0    -99999.0     27.8051     118.000     16.2162
     12.1016     6.24631    0.351000     20.1325     128.000     15.7852     0.00000     1.00000    -1.00000     27.8051     118.188     16.0130
     12.2656     6.24631    0.351000     20.1325     128.000     15.7852     0.00000     1.00000    -1.00000     27.8359     119.000     15.1351
     12.4296     6.26297    0.351000     20.1325     128.000     15.8265     0.00000     1.00000    -1.00000     27.9692     119.000     15.1351
     12.5936     6.26318    0.352975     20.1325     128.000     15.8270     0.00000     1.00000    -1.00000     27.9385     119.374     16.1470
     12.7576     6.26318    0.354974     20.1325     128.000     15.8270     0.00000     1.00000    -1.00000     27.8051     121.000     20.5405
     12.9216     6.24653    0.355987     20.1325     128.000     15.7858     0.00000     1.00000    -1.00000     27.8051     121.000     20.5405
     13.0856     6.24631    0.359946     20.1325     128.000     15.7852     0.00000     1.00000    -1.00000     27.7440     120.814     21.3466
     13.2496     6.26295    0.358028     20.1325     128.000     15.8265     0.00000     1.00000    -1.00000     27.4770     120.000     24.8649
