#------------------------------------------------------------
~VERSION INFORMATION
VERS.               2.0  :CWLS LOG ASCII STANDARD - VERSION 2.0
WRAP.                NO  :ONE LINE PER DEPTH STEP
#------------------------------------------------------------
~WELL INFORMATION
STRT.FT         4.22960  :FIRST INDEX VALUE
STOP.FT         269.254  :LAST INDEX VALUE
STEP.FT         0.00000  :STEP
NULL.            -99999  :NULL VALUE
COMP.                    :
WELL. CARLTON (DARCY TW)  :WELL
FLD.                     :
LOC.                     :
SRVC.                    :
CTRY.               USA  :CTRY
STAT.         MINNESOTA  :STAT
CNTY.              RICE  :CNTY
DATE.        04/22/2025  :DATE
API.             886189  :API
#------------------------------------------------------------
~CURVE INFORMATION
DEPT.FT                  :DEPTH
CALIPER-IN.IN            :Caliper-In
TIME.SEC                 :Time
TCPU.'C                  :TCPU
MOTOR.                   :Motor
CALIPER-CM.CM            :Caliper-Cm
OPEN.                    :Open
CLOSE.                   :Close
ARM.                     :Arm
SPEED.FT/MIN             :Speed
TOOLPOWERVOLTAGE.V       :ToolPowerVoltage
TOOLPOWERCURRENT.MA      :ToolPowerCurrent
#------------------------------------------------------------
~PARAMETER INFORMATION
CASB1.               27  :CASB1
CASB2.              270  :CASB2
CASB3.                   :CASB3
CASB4.                   :CASB4
CASB5.                   :CASB5
CASC1.     STEEL CASING  :CASC1
CASC2.        OPEN HOLE  :CASC2
CASC3.                   :CASC3
CASC4.                   :CASC4
CASC5.                   :CASC5
CASD1.               6"  :CASD1
CASD2.               6"  :CASD2
CASD3.                   :CASD3
CASD4.                   :CASD4
CASD5.                   :CASD5
CAST1.                0  :CAST1
CAST2.               27  :CAST2
CAST3.                   :CAST3
CAST4.                   :CAST4
CAST5.                   :CAST5
DRDP.               275  :DRDP
EGL.             948 L1  :EGL
FTYP.             WATER  :FTYP
LDIR.                UP  :LDIR
LMF.             GROUND  :LMF
LOTD.               269  :LOTD
MGSCUTTINGSNO.      N/A  :MGSCUTTINGSNO
RANG.                19  :RANG
RATE.            15 FPM  :RATE
RECB.             MAYER  :RECB
RMKS.                    :RMKS
RNGD.                 W  :RNGD
RUN.                  1  :RUN
SECT.                31  :SECT
STOP_FT.            269  :STOP.FT
STRT_FT.              4  :STRT.FT
SUBS.            CDCDBB  :SUBS
SWL.                 24  :SWL
TOOL. CALIPER (GO4-CAL-PLUG-7090)  :TOOL
TOWN.               112  :TOWN
#------------------------------------------------------------
~OTHER
#------------------------------------------------------------
~A  DEPT[FT]  CALIPER-IN        TIME        TCPU       MOTOR  CALIPER-CM        OPEN       CLOSE         ARM       SPEED  TOOLPOWERV  TOOLPOWERC
# ...
     86.8856     6.38229    -99999.0    -99999.0    -99999.0     16.1222    -99999.0    -99999.0    -99999.0     17.4705     119.000     16.2162
     87.0496     6.45039    0.547000     20.1325     128.000     16.2909     0.00000     1.00000    -1.00000     17.4763     119.000     16.7532
     87.2136     6.43625    0.561803     20.1325     128.000     16.2559     0.00000     1.00000    -1.00000     17.5525     119.000     23.7838
     87.3776     6.90181    0.557906     20.1325     128.000     17.4095     0.00000     1.00000    -1.00000     17.5698     119.000     23.7838
     87.5416     7.13323    0.558741     20.1325     128.000     17.9829     0.00000     1.00000    -1.00000     17.7870     118.930     23.3282
     87.7056     6.55558    0.557260     20.1325     128.000     16.5516     0.00000     1.00000    -1.00000     17.6345     118.000     17.2973
     87.8696     6.46563    0.555260     20.1325     128.000     16.3287     0.00000     1.00000    -1.00000     17.6288     118.000     17.2973
     88.0336     6.59764    0.568042     20.1325     128.000     16.6558     0.00000     1.00000    -1.00000     17.5525     118.000     17.2973
     88.1976     6.95472    0.559569     20.1325     128.000     17.5406     0.00000     1.00000    -1.00000     17.5525     118.069     17.1477
     88.3616     7.47458    0.560607     20.1325     128.000     18.8288     0.00000     1.00000    -1.00000     17.5525     119.000     15.1351
     88.5256     6.72464    0.559262     20.1325     128.000     16.9705     0.00000     1.00000    -1.00000     17.5525     119.137     15.7296
     88.6896     6.51268    0.555526     20.1325     128.000     16.4453     0.00000     1.00000    -1.00000     17.5525     121.000     23.7838
     88.8536     6.64583    0.554132     20.1325     128.000     16.7752     0.00000     1.00000    -1.00000     17.5581     120.864     23.6365
     89.0176    -99999.0    0.553132     20.1325     128.000    -99999.0     0.00000     1.00000    -1.00000     17.6345     119.000     21.6216
     89.1816     6.83678    0.554735     20.1325     128.000     17.2484     0.00000     1.00000    -1.00000     17.6345     118.932     21.0363
     89.3456     6.52947    0.557602     20.1325     128.000     16.4869     0.00000     1.00000    -1.00000     17.6456     118.135     13.1917
     89.5096     6.51176    0.558000     20.1325     128.000     16.4430     0.00000     1.00000    -1.00000     17.7986     120.000     16.2162
     89.6736     6.57474    -99999.0    -99999.0    -99999.0     16.5991    -99999.0    -99999.0    -99999.0     17.7931     120.067     16.8669
     89.8376     6.40828    0.556000     20.1325     128.000     16.1866     0.00000     1.00000    -1.00000     17.7165     121.000     25.9459
     90.0016     6.68821    0.558599     20.1325     128.000     16.8802     0.00000     1.00000    -1.00000     17.7111     120.867     25.5151
     90.1656     6.75017    0.558134     20.1325     128.000     17.0337     0.00000     1.00000    -1.00000     17.6345     119.000     19.4595
     90.3296     6.43106    0.557134     20.1325     128.000     16.2430     0.00000     1.00000    -1.00000     17.6399     119.000     19.1036
     90.4936     6.70254    0.556134     20.1325     128.000     16.9157     0.00000     1.00000    -1.00000     17.7112     119.000     14.0541
     90.6576    -99999.0    0.560327     20.1325     128.000    -99999.0     0.00000     1.00000    -1.00000     17.6345     119.131     14.6899
     90.8216    -99999.0    0.555809     20.1325     128.000    -99999.0     0.00000     1.00000    -1.00000     17.6292     120.870     23.7134
     90.9856     6.81991    0.558460     20.1325     128.000     17.2066     0.00000     1.00000    -1.00000     17.5525     119.000     22.7027
     91.1496     6.63028    0.557271     20.1325     128.000     16.7367     0.00000     1.00000    -1.00000     17.5578     118.935     22.2140
     91.3136     6.57143    -99999.0    -99999.0    -99999.0     16.5908    -99999.0    -99999.0    -99999.0     17.6345     118.000     15.1351
     91.4776     6.58143    -99999.0    -99999.0    -99999.0     16.6156    -99999.0    -99999.0    -99999.0     17.6345     118.128     15.2736
     91.6416     6.45257    0.558000     20.1325     128.000     16.2963     0.00000     1.00000    -1.00000     17.6345     120.000     17.2973
     91.8056     6.50473    0.558864     20.1325     128.000     16.4256     0.00000     1.00000    -1.00000     17.6345     120.064     17.7785
     91.9696     6.45798    0.555546     20.1325     128.000     16.3097     0.00000     1.00000    -1.00000     17.6345     121.000     24.8649
     92.1336     6.28859    0.558452     20.1325     128.000     15.8900     0.00000     1.00000    -1.00000     17.6345     120.874     24.5922
     92.2976     6.29229    0.556412     20.3200     128.000     15.8992     0.00000     1.00000    -1.00000     17.6345     119.000     20.2011
     92.4616     6.45698    0.558588     20.1624     128.000     16.3073     0.00000     1.00000    -1.00000     17.6345     119.000     15.1351
     92.6256     6.27884    0.556413     20.1325     128.000     15.8658     0.00000     1.00000    -1.00000     17.6345     119.125     15.6742
     92.7896     6.34811    0.555138     20.1325     128.000     16.0375     0.00000     1.00000    -1.00000     17.6345     121.000     23.7838
     92.9536     6.26263    0.555862     20.1325     128.000     15.8257     0.00000     1.00000    -1.00000     17.6396     120.876     23.7170
     93.1176    -99999.0    0.557723     20.1325     128.000    -99999.0     0.00000     1.00000    -1.00000     17.7165     119.000     22.7027
     93.2816     6.24631    0.553694     20.1325     128.000     15.7852     0.00000     1.00000    -1.00000     17.7115     118.939     22.1728
     93.4456     6.23178    0.559027     20.1325     128.000     15.7493     0.00000     1.00000    -1.00000     17.6395     118.000     14.0541
     93.6096     6.24396    0.554835     20.1325     128.000     15.7794     0.00000     1.00000    -1.00000     17.7165     118.121     14.3167
     93.7736     6.26083    -99999.0    -99999.0    -99999.0     15.8212    -99999.0    -99999.0    -99999.0     17.7215     120.000     18.3784
     93.9376     6.29220    0.556000     20.1325     128.000     15.8990     0.00000     1.00000    -1.00000     17.7986     120.000     18.8342
     94.1016     6.31143    0.559440     20.1325     128.000     15.9466     0.00000     1.00000    -1.00000     17.7887     119.880     25.4270
     94.2656     6.27028    0.558280     20.1325     128.000     15.8446     0.00000     1.00000    -1.00000     17.6345     118.000     17.2973
     94.4296     6.26318    0.558860     20.1325     128.000     15.8270     0.00000     1.00000    -1.00000     17.6345     118.119     17.2330
     94.5936     6.24868    0.559859     20.1325     128.000     15.7911     0.00000     1.00000    -1.00000     17.6297     120.000     16.2162
     94.7576     6.30427    0.560000     20.1325     128.000     15.9289     0.00000     1.00000    -1.00000     17.5525     120.059     16.5985
     94.9216     6.25585    0.558283     20.1325     128.000     15.8089     0.00000     1.00000    -1.00000     17.5573     121.000     22.7027
     95.0856     6.27527    0.560576     20.1325     128.000     15.8570     0.00000     1.00000    -1.00000     17.6345     120.942     22.8291
     95.2496     6.29453    0.560142     20.1325     128.000     15.9047     0.00000     1.00000    -1.00000     17.6250     120.000     24.8649
     95.4136     6.28245    0.560000     20.1325     128.000     15.8748     0.00000     1.00000    -1.00000     17.4705     119.884     24.3011
     95.5776     6.29452    0.554854     20.1325     128.000     15.9047     0.00000     1.00000    -1.00000     17.4847     118.058     15.1351
     95.7416     6.25353    0.558287     20.1325     128.000     15.8031     0.00000     1.00000    -1.00000     17.7165     119.000     15.1351
     95.9056     6.27523    0.559000     20.1325     128.000     15.8569     0.00000     1.00000    -1.00000     17.7072     119.114     15.5060
