#------------------------------------------------------------
~VERSION INFORMATION
VERS.               2.0  :CWLS LOG ASCII STANDARD - VERSION 2.0
WRAP.                NO  :ONE LINE PER DEPTH STEP
#------------------------------------------------------------
~WELL INFORMATION
STRT.FT         4.22960  :FIRST INDEX VALUE
STOP.FT         269.254  :LAST INDEX VALUE
STEP.FT         0.00000  :STEP
NULL.            -99999  :NULL VALUE
COMP.                    :
WELL. CARLTON (DARCY TW)  :WELL
FLD.                     :
LOC.                     :
SRVC.                    :
CTRY.               USA  :CTRY
STAT.         MINNESOTA  :STAT
CNTY.              RICE  :CNTY
DATE.        04/22/2025  :DATE
API.             886189  :API
#------------------------------------------------------------
~CURVE INFORMATION
DEPT.FT                  :DEPTH
CALIPER-IN.IN            :Caliper-In
TIME.SEC                 :Time
TCPU.'C                  :TCPU
MOTOR.                   :Motor
CALIPER-CM.CM            :Caliper-Cm
OPEN.                    :Open
CLOSE.                   :Close
ARM.                     :Arm
SPEED.FT/MIN             :Speed
TOOLPOWERVOLTAGE.V       :ToolPowerVoltage
TOOLPOWERCURRENT.MA      :ToolPowerCurrent
#------------------------------------------------------------
~PARAMETER INFORMATION
CASB1.               27  :CASB1
CASB2.              270  :CASB2
CASB3.                   :CASB3
CASB4.                   :CASB4
CASB5.                   :CASB5
CASC1.     STEEL CASING  :CASC1
CASC2.        OPEN HOLE  :CASC2
CASC3.                   :CASC3
CASC4.                   :CASC4
CASC5.                   :CASC5
CASD1.               6"  :CASD1
CASD2.               6"  :CASD2
CASD3.                   :CASD3
CASD4.                   :CASD4
CASD5.                   :CASD5
CAST1.                0  :CAST1
CAST2.               27  :CAST2
CAST3.                   :CAST3
CAST4.                   :CAST4
CAST5.                   :CAST5
DRDP.               275  :DRDP
EGL.             948 L1  :EGL
FTYP.             WATER  :FTYP
LDIR.                UP  :LDIR
LMF.             GROUND  :LMF
LOTD.               269  :LOTD
MGSCUTTINGSNO.      N/A  :MGSCUTTINGSNO
RANG.                19  :RANG
RATE.            15 FPM  :RATE
RECB.             MAYER  :RECB
RMKS.                    :RMKS
RNGD.                 W  :RNGD
RUN.                  1  :RUN
SECT.                31  :SECT
STOP_FT.            269  :STOP.FT
STRT_FT.              4  :STRT.FT
SUBS.            CDCDBB  :SUBS
SWL.                 24  :SWL
TOOL. CALIPER (GO4-CAL-PLUG-7090)  :TOOL
TOWN.               112  :TOWN
#------------------------------------------------------------
~OTHER
#------------------------------------------------------------
~A  DEPT[FT]  CALIPER-IN        TIME        TCPU       MOTOR  CALIPER-CM        OPEN       CLOSE         ARM       SPEED  TOOLPOWERV  TOOLPOWERC
# ...
     105.254     6.29333    0.553472     20.1325     128.000     15.9018     0.00000     1.00000    -1.00000     17.8736     121.000     21.6216
     105.418     6.37952    0.565636     20.1325     128.000     16.1153     0.00000     1.00000    -1.00000     17.7165     120.915     21.6216
     105.582    -99999.0    0.564631     20.1325     128.000    -99999.0     0.00000     1.00000    -1.00000     17.7131     119.000     21.6216
     105.746    -99999.0    0.564842     20.1325     128.000    -99999.0     0.00000     1.00000    -1.00000     17.6345     119.000     21.3047
     105.910     6.33066    0.562475     20.1325     128.000     15.9943     0.00000     1.00000    -1.00000     17.6243     119.000     14.0541
     106.074     6.45840    0.556952     20.1325     128.000     16.3108     0.00000     1.00000    -1.00000     17.3952     119.083     14.3664
     106.238     6.41156    -99999.0    -99999.0    -99999.0     16.1947    -99999.0    -99999.0    -99999.0     17.5525     120.959     21.7991
     106.402     6.71020    -99999.0    -99999.0    -99999.0     16.9347    -99999.0    -99999.0    -99999.0     17.5525     120.000     25.9459
     106.566     6.57077    0.558000     20.3498     128.000     16.5892     0.00000     1.00000    -1.00000     17.5525     119.919     25.5511
     106.730    -99999.0    0.553798     20.1672     128.000    -99999.0     0.00000     1.00000    -1.00000     17.5591     118.000     16.2162
     106.894     6.24631    0.558880     20.1325     128.000     15.7852     0.00000     1.00000    -1.00000     17.7165     118.040     16.1298
     107.058     6.23214    0.559160     20.1325     128.000     15.7501     0.00000     1.00000    -1.00000     17.7198     119.000     14.0541
     107.222     6.21528    0.563198     20.1325     128.000     15.7083     0.00000     1.00000    -1.00000     17.7986     119.040     14.1822
     107.386     6.22673    -99999.0    -99999.0    -99999.0     15.7367    -99999.0    -99999.0    -99999.0     17.7857     120.000     17.2973
     107.550     6.25775    0.566000     20.1325     128.000     15.8136     0.00000     1.00000    -1.00000     17.4705     119.961     17.4659
     107.714     6.24903    0.559290     20.1325     128.000     15.7920     0.00000     1.00000    -1.00000     17.4705     119.000     21.6216
     107.878    -99999.0    0.558000     20.1325     128.000    -99999.0     0.00000     1.00000    -1.00000     17.4736     119.000     21.6216
     108.042    -99999.0    0.555485     20.1325     128.000    -99999.0     0.00000     1.00000    -1.00000     17.5525     119.000     21.4150
     108.206     6.28005    0.554162     20.1325     128.000     15.8689     0.00000     1.00000    -1.00000     17.5587     119.000     16.2162
     108.370     6.23765    0.554838     20.1325     128.000     15.7638     0.00000     1.00000    -1.00000     17.7165     119.000     16.2162
     108.534     6.25770    -99999.0    -99999.0    -99999.0     15.8135    -99999.0    -99999.0    -99999.0     17.7165     119.000     16.2162
     108.698     6.24906    -99999.0    -99999.0    -99999.0     15.7921    -99999.0    -99999.0    -99999.0     17.7226     119.037     16.5785
     108.862    -99999.0    0.553000     20.1325     128.000    -99999.0     0.00000     1.00000    -1.00000     17.8806     120.000     25.9459
     109.026    -99999.0    0.559694     20.1325     128.000    -99999.0     0.00000     1.00000    -1.00000     17.8746     119.927     25.5889
     109.190     6.63433    0.563510     20.1325     128.000     16.7467     0.00000     1.00000    -1.00000     17.7165     118.036     16.2162
     109.354     6.30987    0.564836     20.1325     128.000     15.9427     0.00000     1.00000    -1.00000     17.7076     119.000     16.2162
     109.518     6.24631    -99999.0    -99999.0    -99999.0     15.7852    -99999.0    -99999.0    -99999.0     17.4705     119.072     16.4882
     109.682     6.23221    -99999.0    -99999.0    -99999.0     15.7503    -99999.0    -99999.0    -99999.0     17.4734     121.000     23.7838
     109.846     6.22944    0.555000     20.1325     128.000     15.7434     0.00000     1.00000    -1.00000     17.5525     120.965     23.7838
     110.010     6.24353    0.555835     20.1325     128.000     15.7784     0.00000     1.00000    -1.00000     17.5496     120.000     23.7838
     110.174     6.27448    0.556000     20.1325     128.000     15.8550     0.00000     1.00000    -1.00000     17.4791     119.930     23.4445
     110.338     6.35045    0.555165     20.1325     128.000     16.0433     0.00000     1.00000    -1.00000     17.7165     118.000     14.0541
     110.502     6.27995    0.552497     20.1325     128.000     15.8686     0.00000     1.00000    -1.00000     17.7194     118.103     14.3516
     110.666     6.30540    0.553668     20.1325     128.000     15.9317     0.00000     1.00000    -1.00000     17.7986     120.932     22.7027
     110.830    -99999.0    0.559838     20.1325     128.000    -99999.0     0.00000     1.00000    -1.00000     17.7958     119.000     22.7027
     110.994    -99999.0    0.561834     20.1325     128.000    -99999.0     0.00000     1.00000    -1.00000     17.7165     119.000     22.3753
     111.158     6.28005    0.562833     20.1325     128.000     15.8689     0.00000     1.00000    -1.00000     17.7111     119.000     12.9730
     111.322    -99999.0    0.563000     20.1325     128.000    -99999.0     0.00000     1.00000    -1.00000     17.5525     119.033     13.3309
     111.486     6.28005    -99999.0    -99999.0    -99999.0     15.8689    -99999.0    -99999.0    -99999.0     17.5498     120.000     23.7838
     111.650     6.28005    -99999.0    -99999.0    -99999.0     15.8689    -99999.0    -99999.0    -99999.0     17.4731     120.000     23.7838
     111.814     6.28005    0.551000     20.1325     128.000     15.8689     0.00000     1.00000    -1.00000     17.5525     120.000     23.7838
     111.978     6.30812    -99999.0    -99999.0    -99999.0     15.9384    -99999.0    -99999.0    -99999.0     17.5604     119.936     23.5413
     112.142     6.34186    0.554000     20.1325     128.000     16.0220     0.00000     1.00000    -1.00000     17.7986     118.000     16.2162
     112.306     6.52990    0.548179     20.1325     128.000     16.4880     0.00000     1.00000    -1.00000     17.8011     118.063     16.2162
     112.470     6.35648    0.553651     20.1325     128.000     16.0582     0.00000     1.00000    -1.00000     17.8806     120.031     16.4191
     112.634     6.22967    0.559987     20.1325     128.000     15.7440     0.00000     1.00000    -1.00000     17.8780     121.000     22.7027
     112.798    -99999.0    0.561000     20.1325     128.000    -99999.0     0.00000     1.00000    -1.00000     17.7986     120.938     22.6361
     112.962     6.36440    0.564322     20.1325     128.000     16.0779     0.00000     1.00000    -1.00000     17.7910     119.000     20.5405
     113.126     6.28036    0.567491     20.1325     128.000     15.8696     0.00000     1.00000    -1.00000     17.5500     119.000     20.3441
     113.290     6.24918    0.563019     20.1325     128.000     15.7924     0.00000     1.00000    -1.00000     17.4705     119.000     14.0541
     113.454     6.38630    -99999.0    -99999.0    -99999.0     16.1321    -99999.0    -99999.0    -99999.0     17.4705     119.060     14.2149
     113.618     6.30306    0.556000     20.1325     128.000     15.9259     0.00000     1.00000    -1.00000     17.4705     121.000     19.4595
     113.782     6.25207    0.554341     20.1325     128.000     15.7995     0.00000     1.00000    -1.00000     17.4729     120.971     19.6495
     113.946     6.41414    0.554829     20.1325     128.000     16.2011     0.00000     1.00000    -1.00000     17.5525     119.942     25.6317
     114.110     6.44876    0.553342     20.1325     128.000     16.2869     0.00000     1.00000    -1.00000     17.5596     118.000     15.1351
     114.274     6.43478    0.557143     20.1325     128.000     16.2522     0.00000     1.00000    -1.00000     17.7986     118.029     15.1043
