#------------------------------------------------------------
~VERSION INFORMATION
VERS.               2.0  :CWLS LOG ASCII STANDARD - VERSION 2.0
WRAP.                NO  :ONE LINE PER DEPTH STEP
#------------------------------------------------------------
~WELL INFORMATION
STRT.FT         4.22960  :FIRST INDEX VALUE
STOP.FT         269.254  :LAST INDEX VALUE
STEP.FT         0.00000  :STEP
NULL.            -99999  :NULL VALUE
COMP.                    :
WELL. CARLTON (DARCY TW)  :WELL
FLD.                     :
LOC.                     :
SRVC.                    :
CTRY.               USA  :CTRY
STAT.         MINNESOTA  :STAT
CNTY.              RICE  :CNTY
DATE.        04/22/2025  :DATE
API.             886189  :API
#------------------------------------------------------------
~CURVE INFORMATION
DEPT.FT                  :DEPTH
CALIPER-IN.IN            :Caliper-In
TIME.SEC                 :Time
TCPU.'C                  :TCPU
MOTOR.                   :Motor
CALIPER-CM.CM            :Caliper-Cm
OPEN.                    :Open
CLOSE.                   :Close
ARM.                     :Arm
SPEED.FT/MIN             :Speed
TOOLPOWERVOLTAGE.V       :ToolPowerVoltage
TOOLPOWERCURRENT.MA      :ToolPowerCurrent
#------------------------------------------------------------
~PARAMETER INFORMATION
CASB1.               27  :CASB1
CASB2.              270  :CASB2
CASB3.                   :CASB3
CASB4.                   :CASB4
CASB5.                   :CASB5
CASC1.     STEEL CASING  :CASC1
CASC2.        OPEN HOLE  :CASC2
CASC3.                   :CASC3
CASC4.                   :CASC4
CASC5.                   :CASC5
CASD1.               6"  :CASD1
CASD2.               6"  :CASD2
CASD3.                   :CASD3
CASD4.                   :CASD4
CASD5.                   :CASD5
CAST1.                0  :CAST1
CAST2.               27  :CAST2
CAST3.                   :CAST3
CAST4.                   :CAST4
CAST5.                   :CAST5
DRDP.               275  :DRDP
EGL.             948 L1  :EGL
FTYP.             WATER  :FTYP
LDIR.                UP  :LDIR
LMF.             GROUND  :LMF
LOTD.               269  :LOTD
MGSCUTTINGSNO.      N/A  :MGSCUTTINGSNO
RANG.                19  :RANG
RATE.            15 FPM  :RATE
RECB.             MAYER  :RECB
RMKS.                    :RMKS
RNGD.                 W  :RNGD
RUN.                  1  :RUN
SECT.                31  :SECT
STOP_FT.            269  :STOP.FT
STRT_FT.              4  :STRT.FT
SUBS.            CDCDBB  :SUBS
SWL.                 24  :SWL
TOOL. CALIPER (GO4-CAL-PLUG-7090)  :TOOL
TOWN.               112  :TOWN
#------------------------------------------------------------
~OTHER
#------------------------------------------------------------
~A  DEPT[FT]  CALIPER-IN        TIME        TCPU       MOTOR  CALIPER-CM        OPEN       CLOSE         ARM       SPEED  TOOLPOWERV  TOOLPOWERC
# ...
     178.726     6.11135    0.556265     20.3498     128.000     15.4508     0.00000     1.00000    -1.00000     17.5525     118.144     18.9245
     178.890     6.11135    0.555911     20.3498     128.000     15.4508     0.00000     1.00000    -1.00000     17.4003     118.000     18.3784
     179.054     6.11135    0.554090     20.3498     128.000     15.4508     0.00000     1.00000    -1.00000     17.3885     118.927     15.3707
     179.218     6.11135    0.556636     20.3498     128.000     15.4508     0.00000     1.00000    -1.00000     17.6926     119.000     15.1351
     179.382     6.11135    0.552185     20.3498     128.000     15.4508     0.00000     1.00000    -1.00000     17.7926     120.854     22.1496
     179.546     6.11135    0.557267     20.3498     128.000     15.4508     0.00000     1.00000    -1.00000     17.7986     121.000     22.7027
     179.710     6.31968    0.555641     20.3498     128.000     15.9670     0.00000     1.00000    -1.00000     17.7226     120.074     23.7043
     179.874    -99999.0    0.555452     20.3498     128.000    -99999.0     0.00000     1.00000    -1.00000     17.7165     120.000     23.7838
     180.038     6.09447    0.558178     20.1921     128.000     15.4090     0.00000     1.00000    -1.00000     17.6406     118.148     13.7747
     180.202     6.09447    0.556097     20.2902     128.000     15.4090     0.00000     1.00000    -1.00000     17.6345     120.777     19.9776
     180.366     6.09447    0.558627     20.3498     128.000     15.4090     0.00000     1.00000    -1.00000     17.7104     121.000     20.5405
     180.530    -99999.0    -99999.0    -99999.0    -99999.0    -99999.0    -99999.0    -99999.0    -99999.0     17.7165     120.075     25.5413
     180.694     6.09447    0.558000     20.3498     128.000     15.4090     0.00000     1.00000    -1.00000     17.6407     120.000     25.9459
     180.858     6.09447    0.557275     20.3498     128.000     15.4090     0.00000     1.00000    -1.00000     17.6345     119.075     18.9488
     181.022     6.09447    0.556276     20.3498     128.000     15.4090     0.00000     1.00000    -1.00000     17.6345     119.000     18.3784
     181.186     6.09447    -99999.0    -99999.0    -99999.0     15.4090    -99999.0    -99999.0    -99999.0     17.6345     119.000     14.3826
     181.350     6.09447    0.562000     20.3498     128.000     15.4090     0.00000     1.00000    -1.00000     17.6345     119.000     14.0541
     181.514     6.09447    0.562724     20.3498     128.000     15.4090     0.00000     1.00000    -1.00000     17.6345     120.847     21.0431
     181.678    -99999.0    0.562277     20.3498     128.000    -99999.0     0.00000     1.00000    -1.00000     17.6345     121.000     21.6216
     181.842     6.09447    0.562000     20.1927     128.000     15.4090     0.00000     1.00000    -1.00000     17.4831     119.154     20.6238
     182.006    -99999.0    0.561277     20.2895     128.000    -99999.0     0.00000     1.00000    -1.00000     17.4705     118.077     13.5578
     182.170     6.09447    0.559555     20.3498     128.000     15.4090     0.00000     1.00000    -1.00000     17.5461     118.000     12.9730
     182.334     6.09447    -99999.0    -99999.0    -99999.0     15.4090    -99999.0    -99999.0    -99999.0     17.5525     120.767     20.9493
     182.498     6.09447    0.559000     20.3498     128.000     15.4090     0.00000     1.00000    -1.00000     17.5525     121.000     21.6216
     182.662     6.09447    -99999.0    -99999.0    -99999.0     15.4090    -99999.0    -99999.0    -99999.0     17.6281     120.078     25.6078
     182.826     6.09447    0.554000     20.3498     128.000     15.4090     0.00000     1.00000    -1.00000     17.6345     120.000     25.9459
     182.990     6.09447    0.556885     20.3498     128.000     15.4090     0.00000     1.00000    -1.00000     17.6345     119.079     18.9737
     183.154     6.09447    0.555837     20.3498     128.000     15.4090     0.00000     1.00000    -1.00000     17.6345     119.000     18.3784
     183.318     6.09447    0.557883     20.3498     128.000     15.4090     0.00000     1.00000    -1.00000     17.7100     119.000     14.3965
     183.482     6.11878    0.557559     20.3498     128.000     15.4692     0.00000     1.00000    -1.00000     17.6410     120.841     22.0145
     183.646     6.11607    0.557000     20.3498     128.000     15.4625     0.00000     1.00000    -1.00000     17.6345     121.000     22.7027
     183.810     6.11135    0.557000     20.3498     128.000     15.4508     0.00000     1.00000    -1.00000     17.6345     120.080     24.6918
     183.974     6.11135    0.557000     20.3498     128.000     15.4508     0.00000     1.00000    -1.00000     17.6345     120.000     24.8649
     184.138     6.12348    0.554842     20.3498     128.000     15.4809     0.00000     1.00000    -1.00000     17.7853     118.161     14.9251
     184.302     6.11608    0.555438     20.3498     128.000     15.4626     0.00000     1.00000    -1.00000     17.7986     118.000     14.0541
     184.466     6.11135    0.558157     20.3498     128.000     15.4508     0.00000     1.00000    -1.00000     17.6478     119.838     17.0343
     184.630     6.18409    0.558281     20.3498     128.000     15.6311     0.00000     1.00000    -1.00000     17.6345     120.000     17.2973
     184.794     6.13985    0.558719     20.3498     128.000     15.5214     0.00000     1.00000    -1.00000     17.6345     120.918     25.2406
     184.958     6.09923    0.556845     20.3498     128.000     15.4208     0.00000     1.00000    -1.00000     17.6345     119.164     18.9973
     185.122     6.09447    0.558872     20.3498     128.000     15.4090     0.00000     1.00000    -1.00000     17.6345     119.000     18.3784
     185.286     6.09447    0.562153     20.3498     128.000     15.4090     0.00000     1.00000    -1.00000     17.6345     119.000     14.4103
     185.450     6.09447    0.559413     20.3498     128.000     15.4090     0.00000     1.00000    -1.00000     17.6345     119.000     14.0541
     185.614     6.09447    0.558000     20.3498     128.000     15.4090     0.00000     1.00000    -1.00000     17.4841     120.834     21.9862
     185.778     6.09447    0.560151     20.3498     128.000     15.4090     0.00000     1.00000    -1.00000     17.4705     121.000     22.7027
     185.942    -99999.0    0.559567     20.3498     128.000    -99999.0     0.00000     1.00000    -1.00000     17.6960     10.0810     1.89146
     186.106     6.07760    0.556134     20.3498     128.000     15.3672     0.00000     1.00000    -1.00000     17.7165     0.00000     0.00000
     186.270     6.07760    0.557865     20.3498     128.000     15.3672     0.00000     1.00000    -1.00000     17.5662     109.030     14.8576
     186.434     6.08968    0.556136     20.3498     128.000     15.3971     0.00000     1.00000    -1.00000     17.6276     119.000     16.2162
     186.598     6.08240    -99999.0    -99999.0    -99999.0     15.3791    -99999.0    -99999.0    -99999.0     17.6345     119.000     16.2162
     186.762     6.07760    0.562000     20.3498     128.000     15.3672     0.00000     1.00000    -1.00000     17.7096     120.831     24.1331
     186.926     6.08967    0.557709     20.3498     128.000     15.3971     0.00000     1.00000    -1.00000     17.7165     121.000     24.8649
     187.090     6.08242    0.557430     20.3498     128.000     15.3791     0.00000     1.00000    -1.00000     17.6415     119.170     21.8978
     187.254     6.11377    0.557285     20.3498     128.000     15.4568     0.00000     1.00000    -1.00000     17.6345     119.000     21.6216
     187.418     6.14027    0.555571     20.3498     128.000     15.5225     0.00000     1.00000    -1.00000     17.6345     119.000     15.6909
     187.582     6.24146    0.553572     20.3498     128.000     15.7732     0.00000     1.00000    -1.00000     17.6345     119.000     15.1351
     187.746     6.13554    0.555856     20.3498     128.000     15.5108     0.00000     1.00000    -1.00000     17.7095     120.828     21.0624
