#------------------------------------------------------------
~VERSION INFORMATION
VERS.               2.0  :CWLS LOG ASCII STANDARD - VERSION 2.0
WRAP.                NO  :ONE LINE PER DEPTH STEP
#------------------------------------------------------------
~WELL INFORMATION
STRT.FT         4.22960  :FIRST INDEX VALUE
STOP.FT         269.254  :LAST INDEX VALUE
STEP.FT         0.00000  :STEP
NULL.            -99999  :NULL VALUE
COMP.                    :
WELL. CARLTON (DARCY TW)  :WELL
FLD.                     :
LOC.                     :
SRVC.                    :
CTRY.               USA  :CTRY
STAT.         MINNESOTA  :STAT
CNTY.              RICE  :CNTY
DATE.        04/22/2025  :DATE
API.             886189  :API
#------------------------------------------------------------
~CURVE INFORMATION
DEPT.FT                  :DEPTH
CALIPER-IN.IN            :Caliper-In
TIME.SEC                 :Time
TCPU.'C                  :TCPU
MOTOR.                   :Motor
CALIPER-CM.CM            :Caliper-Cm
OPEN.                    :Open
CLOSE.                   :Close
ARM.                     :Arm
SPEED.FT/MIN             :Speed
TOOLPOWERVOLTAGE.V       :ToolPowerVoltage
TOOLPOWERCURRENT.MA      :ToolPowerCurrent
#------------------------------------------------------------
~PARAMETER INFORMATION
CASB1.               27  :CASB1
CASB2.              270  :CASB2
CASB3.                   :CASB3
CASB4.                   :CASB4
CASB5.                   :CASB5
CASC1.     STEEL CASING  :CASC1
CASC2.        OPEN HOLE  :CASC2
CASC3.                   :CASC3
CASC4.                   :CASC4
CASC5.                   :CASC5
CASD1.               6"  :CASD1
CASD2.               6"  :CASD2
CASD3.                   :CASD3
CASD4.                   :CASD4
CASD5.                   :CASD5
CAST1.                0  :CAST1
CAST2.               27  :CAST2
CAST3.                   :CAST3
CAST4.                   :CAST4
CAST5.                   :CAST5
DRDP.               275  :DRDP
EGL.             948 L1  :EGL
FTYP.             WATER  :FTYP
LDIR.                UP  :LDIR
LMF.             GROUND  :LMF
LOTD.               269  :LOTD
MGSCUTTINGSNO.      N/A  :MGSCUTTINGSNO
RANG.                19  :RANG
RATE.            15 FPM  :RATE
RECB.             MAYER  :RECB
RMKS.                    :RMKS
RNGD.                 W  :RNGD
RUN.                  1  :RUN
SECT.                31  :SECT
STOP_FT.            269  :STOP.FT
STRT_FT.              4  :STRT.FT
SUBS.            CDCDBB  :SUBS
SWL.                 24  :SWL
TOOL. CALIPER (GO4-CAL-PLUG-7090)  :TOOL
TOWN.               112  :TOWN
#------------------------------------------------------------
~OTHER
#------------------------------------------------------------
~A  DEPT[FT]  CALIPER-IN        TIME        TCPU       MOTOR  CALIPER-CM        OPEN       CLOSE         ARM       SPEED  TOOLPOWERV  TOOLPOWERC
# ...
     243.014     6.06073    0.552000     20.5670     128.000     15.3254     0.00000     1.00000    -1.00000     17.8410     118.000     15.1351
     243.178     6.06073    0.552000     20.5670     128.000     15.3254     0.00000     1.00000    -1.00000     17.7986     118.827     15.1351
     243.342     6.06073    0.554508     20.5670     128.000     15.3254     0.00000     1.00000    -1.00000     17.7986     119.000     15.1351
     243.506     6.06073    0.554120     20.5670     128.000     15.3254     0.00000     1.00000    -1.00000     17.7986     120.653     24.0721
     243.670     6.06073    0.552373     20.5670     128.000     15.3254     0.00000     1.00000    -1.00000     17.7986     121.000     25.9459
     243.834    -99999.0    0.553253     20.5670     128.000    -99999.0     0.00000     1.00000    -1.00000     17.7986     119.348     20.5867
     243.998     6.06073    0.552748     20.5670     128.000     15.3254     0.00000     1.00000    -1.00000     17.7986     119.000     14.9951
     244.162    -99999.0    0.555129     20.5670     128.000    -99999.0     0.00000     1.00000    -1.00000     17.7986     119.000     14.0541
     244.326     6.06073    0.558877     20.5670     128.000     15.3254     0.00000     1.00000    -1.00000     17.7986     120.651     21.1931
     244.490     6.07128    -99999.0    -99999.0    -99999.0     15.3515    -99999.0    -99999.0    -99999.0     17.7309     121.000     22.7027
     244.654    -99999.0    0.562000     20.5670     128.000    -99999.0     0.00000     1.00000    -1.00000     17.7165     119.350     20.9189
     244.818     6.06073    -99999.0    -99999.0    -99999.0     15.3254    -99999.0    -99999.0    -99999.0     17.5813     119.000     20.5405
     244.982     6.08181    0.547000     20.5670     128.000     15.3776     0.00000     1.00000    -1.00000     17.5525     118.175     15.1924
     245.146    -99999.0    0.549497     20.5670     128.000    -99999.0     0.00000     1.00000    -1.00000     17.5525     118.000     14.0541
     245.310     6.06073    -99999.0    -99999.0    -99999.0     15.3254    -99999.0    -99999.0    -99999.0     17.8904     119.648     16.7266
     245.474    -99999.0    0.556000     20.5670     128.000    -99999.0     0.00000     1.00000    -1.00000     17.9626     120.000     17.2973
     245.638     6.07760    0.560989     20.5670     128.000     15.3672     0.00000     1.00000    -1.00000     17.7600     120.823     22.6387
     245.802     6.06709    -99999.0    -99999.0    -99999.0     15.3412    -99999.0    -99999.0    -99999.0     17.7165     118.530     16.6635
     245.966     6.06073    0.568000     20.5670     128.000     15.3254     0.00000     1.00000    -1.00000     17.6490     118.000     15.1351
     246.130     6.07124    -99999.0    -99999.0    -99999.0     15.3514    -99999.0    -99999.0    -99999.0     17.6345     118.000     15.1351
     246.294     6.06710    0.565000     20.5670     128.000     15.3412     0.00000     1.00000    -1.00000     17.4996     118.000     15.1351
     246.458     6.06073    0.566244     20.5670     128.000     15.3254     0.00000     1.00000    -1.00000     17.4705     119.644     16.9126
     246.622     6.07123    0.571975     20.7021     128.000     15.3514     0.00000     1.00000    -1.00000     17.4705     120.000     17.2973
     246.786    -99999.0    0.553862     20.6492     128.000    -99999.0     0.00000     1.00000    -1.00000     17.0661     120.822     24.4033
     246.950     6.07760    0.547215     20.5670     128.000     15.3672     0.00000     1.00000    -1.00000     16.9783     121.000     25.9459
     247.114     6.06713    0.551000     20.5670     128.000     15.3412     0.00000     1.00000    -1.00000     17.8539     118.536     18.8439
     247.278     6.06073    0.551621     20.5670     128.000     15.3254     0.00000     1.00000    -1.00000     18.0446     119.642     16.4099
     247.442     6.06073    -99999.0    -99999.0    -99999.0     15.3254    -99999.0    -99999.0    -99999.0     17.8427     120.000     16.2162
     247.606     6.06073    0.547000     20.5670     128.000     15.3254     0.00000     1.00000    -1.00000     17.8658     120.820     24.1986
     247.770     6.06073    0.550721     20.5670     128.000     15.3254     0.00000     1.00000    -1.00000     17.8806     121.000     25.9459
     247.934     6.06073    0.557340     20.5670     128.000     15.3254     0.00000     1.00000    -1.00000     17.8806     118.540     17.9680
     248.098     6.06073    0.563719     20.5670     128.000     15.3254     0.00000     1.00000    -1.00000     17.8806     118.000     16.2162
     248.262     6.06073    0.573434     20.5670     128.000     15.3254     0.00000     1.00000    -1.00000     17.7462     119.639     17.9880
     248.426     6.06073    0.576142     20.5670     128.000     15.3254     0.00000     1.00000    -1.00000     17.7165     120.000     18.3784
     248.590     6.06073    0.571287     20.7014     128.000     15.3254     0.00000     1.00000    -1.00000     17.2464     120.000     23.6899
     248.754     6.06073    0.560958     20.6498     128.000     15.3254     0.00000     1.00000    -1.00000     17.1424     118.363     16.0153
     248.918     6.06073    0.553526     20.5670     128.000     15.3254     0.00000     1.00000    -1.00000     17.1424     118.000     14.0541
     249.082     6.07116    0.555709     20.5670     128.000     15.3512     0.00000     1.00000    -1.00000     17.6121     119.636     17.5918
     249.246     6.07760    0.559236     20.5670     128.000     15.3672     0.00000     1.00000    -1.00000     17.7165     120.000     18.3784
     249.410    -99999.0    0.560618     20.5670     128.000    -99999.0     0.00000     1.00000    -1.00000     17.6495     120.818     23.6820
     249.574     6.07760    0.561617     20.5670     128.000     15.3672     0.00000     1.00000    -1.00000     17.6345     121.000     24.8649
     249.738     6.07760    0.562000     20.5670     128.000     15.3672     0.00000     1.00000    -1.00000     17.5675     118.549     19.5650
     249.902     6.07760    0.565084     20.5670     128.000     15.3672     0.00000     1.00000    -1.00000     17.5525     118.000     18.3784
     250.066    -99999.0    -99999.0    -99999.0    -99999.0    -99999.0    -99999.0    -99999.0    -99999.0     17.5525     119.633     17.4956
     250.230     6.07760    0.566000     20.5670     128.000     15.3672     0.00000     1.00000    -1.00000     17.5525     120.816     23.4756
     250.394     6.07760    0.561072     20.5670     128.000     15.3672     0.00000     1.00000    -1.00000     17.3517     121.000     24.8649
     250.558     6.07760    0.558000     20.5670     128.000     15.3672     0.00000     1.00000    -1.00000     17.4402     118.553     16.0466
     250.722     6.07760    -99999.0    -99999.0    -99999.0     15.3672    -99999.0    -99999.0    -99999.0     17.4705     118.000     14.0541
     250.886     6.07760    0.564000     20.5670     128.000     15.3672     0.00000     1.00000    -1.00000     17.6042     119.630     16.6980
     251.050     6.07760    0.564000     20.5670     128.000     15.3672     0.00000     1.00000    -1.00000     17.6345     120.000     17.2973
     251.214     6.07760    0.564000     20.5670     128.000     15.3672     0.00000     1.00000    -1.00000     17.5009     120.000     23.4631
     251.378     6.07760    0.567073     20.5670     128.000     15.3672     0.00000     1.00000    -1.00000     17.4705     120.000     24.8649
     251.542     6.07760    0.570229     20.5670     128.000     15.3672     0.00000     1.00000    -1.00000     17.4705     118.371     16.9421
     251.706     6.06725    0.574070     20.5670     128.000     15.3415     0.00000     1.00000    -1.00000     17.3369     119.628     18.6552
     251.870     6.06073    0.575386     20.5670     128.000     15.3254     0.00000     1.00000    -1.00000     17.3064     120.000     19.4595
     252.034     6.06073    0.575000     20.5670     128.000     15.3254     0.00000     1.00000    -1.00000     17.1730     120.000     23.8562
