#------------------------------------------------------------
~VERSION INFORMATION
VERS.               2.0  :CWLS LOG ASCII STANDARD - VERSION 2.0
WRAP.                NO  :ONE LINE PER DEPTH STEP
#------------------------------------------------------------
~WELL INFORMATION
STRT.FT         4.22960  :FIRST INDEX VALUE
STOP.FT         269.254  :LAST INDEX VALUE
STEP.FT         0.00000  :STEP
NULL.            -99999  :NULL VALUE
COMP.                    :
WELL. CARLTON (DARCY TW)  :WELL
FLD.                     :
LOC.                     :
SRVC.                    :
CTRY.               USA  :CTRY
STAT.         MINNESOTA  :STAT
CNTY.              RICE  :CNTY
DATE.        04/22/2025  :DATE
API.             886189  :API
#------------------------------------------------------------
~CURVE INFORMATION
DEPT.FT                  :DEPTH
CALIPER-IN.IN            :Caliper-In
TIME.SEC                 :Time
TCPU.'C                  :TCPU
MOTOR.                   :Motor
CALIPER-CM.CM            :Caliper-Cm
OPEN.                    :Open
CLOSE.                   :Close
ARM.                     :Arm
SPEED.FT/MIN             :Speed
TOOLPOWERVOLTAGE.V       :ToolPowerVoltage
TOOLPOWERCURRENT.MA      :ToolPowerCurrent
#------------------------------------------------------------
~PARAMETER INFORMATION
CASB1.               27  :CASB1
CASB2.              270  :CASB2
CASB3.                   :CASB3
CASB4.                   :CASB4
CASB5.                   :CASB5
CASC1.     STEEL CASING  :CASC1
CASC2.        OPEN HOLE  :CASC2
CASC3.                   :CASC3
CASC4.                   :CASC4
CASC5.                   :CASC5
CASD1.               6"  :CASD1
CASD2.               6"  :CASD2
CASD3.                   :CASD3
CASD4.                   :CASD4
CASD5.                   :CASD5
CAST1.                0  :CAST1
CAST2.               27  :CAST2
CAST3.                   :CAST3
CAST4.                   :CAST4
CAST5.                   :CAST5
DRDP.               275  :DRDP
EGL.             948 L1  :EGL
FTYP.             WATER  :FTYP
LDIR.                UP  :LDIR
LMF.             GROUND  :LMF
LOTD.               269  :LOTD
MGSCUTTINGSNO.      N/A  :MGSCUTTINGSNO
RANG.                19  :RANG
RATE.            15 FPM  :RATE
RECB.             MAYER  :RECB
RMKS.                    :RMKS
RNGD.                 W  :RNGD
RUN.                  1  :RUN
SECT.                31  :SECT
STOP_FT.            269  :STOP.FT
STRT_FT.              4  :STRT.FT
SUBS.            CDCDBB  :SUBS
SWL.                 24  :SWL
TOOL. CALIPER (GO4-CAL-PLUG-7090)  :TOOL
TOWN.               112  :TOWN
#------------------------------------------------------------
~OTHER
#------------------------------------------------------------
~A  DEPT[FT]  CALIPER-IN        TIME        TCPU       MOTOR  CALIPER-CM        OPEN       CLOSE         ARM       SPEED  TOOLPOWERV  TOOLPOWERC
# ...
     40.9656     6.29692    0.556114     20.1325     128.000     15.9107     0.00000     1.00000    -1.00000     17.7868     120.000     16.2162
     41.1296     6.39234    0.558828     20.1325     128.000     16.1471     0.00000     1.00000    -1.00000     17.7048     120.143     17.1418
     41.2936     6.42994    0.562770     20.1325     128.000     16.2403     0.00000     1.00000    -1.00000     17.6345     121.000     22.7027
     41.4576     6.36831    0.558289     20.1325     128.000     16.0875     0.00000     1.00000    -1.00000     17.6229     120.858     22.8564
     41.6216    -99999.0    0.561768     20.1325     128.000    -99999.0     0.00000     1.00000    -1.00000     17.5525     119.716     22.7100
     41.7856     6.48250    0.559175     20.1325     128.000     16.3705     0.00000     1.00000    -1.00000     17.5525     118.000     16.2162
     41.9496     6.30780    0.552410     20.1325     128.000     15.9376     0.00000     1.00000    -1.00000     17.5525     118.141     16.0633
     42.1136     6.29692    0.554824     20.1325     128.000     15.9107     0.00000     1.00000    -1.00000     17.5756     119.000     15.1351
     42.2776     6.36041    -99999.0    -99999.0    -99999.0     16.0680    -99999.0    -99999.0    -99999.0     17.7165     119.282     16.0492
     42.4416     6.57069    0.558000     20.1325     128.000     16.5890     0.00000     1.00000    -1.00000     17.7165     121.000     21.6216
     42.6056     6.55199    0.552357     20.1325     128.000     16.5427     0.00000     1.00000    -1.00000     17.7050     120.719     21.7733
     42.7696     6.70858    0.551060     20.1325     128.000     16.9307     0.00000     1.00000    -1.00000     17.6345     119.000     22.7027
     42.9336     6.54428    0.564159     20.1325     128.000     16.5236     0.00000     1.00000    -1.00000     17.6689     119.000     21.3421
     43.0976     6.88185    0.578155     20.1325     128.000     17.3601     0.00000     1.00000    -1.00000     17.8806     119.140     13.4259
     43.2616     6.69825    0.570545     20.1325     128.000     16.9051     0.00000     1.00000    -1.00000     17.7663     120.000     16.2162
     43.4256     6.82754    0.570939     20.1325     128.000     17.2255     0.00000     1.00000    -1.00000     17.0604     120.139     16.8175
     43.5896     6.77342    0.574755     20.1325     128.000     17.0914     0.00000     1.00000    -1.00000     17.0945     121.000     20.5405
     43.7536    -99999.0    0.567491     20.1325     128.000    -99999.0     0.00000     1.00000    -1.00000     17.3064     121.000     21.2895
     43.9176     6.21257    0.561370     20.1325     128.000     15.7016     0.00000     1.00000    -1.00000     17.2951     121.000     25.9459
     44.0816    -99999.0    0.557247     20.1325     128.000    -99999.0     0.00000     1.00000    -1.00000     17.2471     120.586     24.6026
     44.2456    -99999.0    0.558876     20.1325     128.000    -99999.0     0.00000     1.00000    -1.00000     17.3885     118.276     16.3651
     44.4096     6.33066    -99999.0    -99999.0    -99999.0     15.9943    -99999.0    -99999.0    -99999.0     17.4336     120.000     17.2973
     44.5736     6.34647    0.558000     20.1325     128.000     16.0334     0.00000     1.00000    -1.00000     17.7165     120.137     18.3362
     44.7376     6.39496    -99999.0    -99999.0    -99999.0     16.1536    -99999.0    -99999.0    -99999.0     17.7053     121.000     24.8649
     44.9016     6.42975    -99999.0    -99999.0    -99999.0     16.2398    -99999.0    -99999.0    -99999.0     17.6345     120.590     23.8299
     45.0656     6.28968    0.560000     20.1325     128.000     15.8927     0.00000     1.00000    -1.00000     17.6457     118.000     17.2973
     45.2296     6.67494    0.554382     20.1325     128.000     16.8473     0.00000     1.00000    -1.00000     17.6942     118.000     17.2973
     45.3936     7.17552    0.558681     20.1325     128.000     18.0877     0.00000     1.00000    -1.00000     17.5525     118.000     17.2973
     45.5576    -99999.0    0.559936     20.1325     128.000    -99999.0     0.00000     1.00000    -1.00000     17.5748     118.272     17.5909
     45.7216     9.11783    0.558129     20.1325     128.000     23.0785     0.00000     1.00000    -1.00000     17.7165     120.000     19.4595
     45.8856     8.93177    0.568288     20.1325     128.000     22.5889     0.00000     1.00000    -1.00000     17.6944     120.000     20.1903
     46.0496     6.73550    0.569000     20.1325     128.000     17.0070     0.00000     1.00000    -1.00000     17.5525     119.730     23.8430
     46.2136     6.64679    -99999.0    -99999.0    -99999.0     16.7776    -99999.0    -99999.0    -99999.0     17.5083     118.000     17.2973
     46.3776     6.65120    0.569000     20.1325     128.000     16.7885     0.00000     1.00000    -1.00000     17.2244     118.135     16.8610
     46.5416     6.93488    0.552182     20.1325     128.000     17.4915     0.00000     1.00000    -1.00000     17.2354     119.000     14.0541
     46.7056     7.80577    0.554736     20.1325     128.000     19.6494     0.00000     1.00000    -1.00000     17.3614     119.268     14.9228
     46.8696     8.73480    0.561536     20.1325     128.000     22.0715     0.00000     1.00000    -1.00000     17.7165     121.000     20.5405
     47.0336     10.2859    0.554532     20.3353     128.000     26.1226     0.00000     1.00000    -1.00000     17.7056     120.867     21.2618
     47.1976     8.46036    0.556800     20.1470     128.000     21.3462     0.00000     1.00000    -1.00000     17.6345     120.000     25.9459
     47.3616     7.04658    0.559799     20.1325     128.000     17.7720     0.00000     1.00000    -1.00000     17.6454     119.867     25.2273
     47.5256     6.45132    0.560933     20.1325     128.000     16.2933     0.00000     1.00000    -1.00000     17.7165     119.265     20.6839
     47.6896     6.49367    0.557270     20.1325     128.000     16.3982     0.00000     1.00000    -1.00000     17.7057     121.000     21.6216
     47.8536     6.29494    0.557932     20.1325     128.000     15.9058     0.00000     1.00000    -1.00000     17.6345     121.000     21.6216
     48.0176    -99999.0    0.554272     20.1325     128.000    -99999.0     0.00000     1.00000    -1.00000     17.6237     121.000     21.6216
     48.1816     6.31379    0.554000     20.1325     128.000     15.9525     0.00000     1.00000    -1.00000     17.5741     120.868     21.9063
     48.3456    -99999.0    0.555863     20.1325     128.000    -99999.0     0.00000     1.00000    -1.00000     17.7165     120.000     23.7838
     48.5096     6.33066    0.555069     20.1325     128.000     15.9943     0.00000     1.00000    -1.00000     17.7165     119.738     22.5074
     48.6736    -99999.0    -99999.0    -99999.0    -99999.0    -99999.0    -99999.0    -99999.0    -99999.0     17.7165     118.000     14.0541
     48.8376     6.28005    0.562000     20.1325     128.000     15.8689     0.00000     1.00000    -1.00000     17.7273     118.392     14.7606
     49.0016     6.31144    -99999.0    -99999.0    -99999.0     15.9466    -99999.0    -99999.0    -99999.0     17.7986     121.000     20.3053
     49.1656     6.32948    0.560000     20.1325     128.000     15.9913     0.00000     1.00000    -1.00000     17.7772     121.000     25.9459
     49.3296     6.31497    -99999.0    -99999.0    -99999.0     15.9554    -99999.0    -99999.0    -99999.0     17.6345     120.740     25.3842
     49.4936     6.34516    0.560000     20.3498     128.000     16.0302     0.00000     1.00000    -1.00000     17.6239     119.000     21.6216
     49.6576     6.34753    0.560000     20.1479     128.000     16.0361     0.00000     1.00000    -1.00000     17.5525     118.871     20.5024
     49.8216     6.39455    0.560929     20.1325     128.000     16.1526     0.00000     1.00000    -1.00000     17.5525     118.000     12.9730
     49.9856     6.46083    0.562858     20.1325     128.000     16.3168     0.00000     1.00000    -1.00000     17.5525     118.386     13.9476
