#------------------------------------------------------------
~VERSION INFORMATION
VERS.               2.0  :CWLS LOG ASCII STANDARD - VERSION 2.0
WRAP.                NO  :ONE LINE PER DEPTH STEP
#------------------------------------------------------------
~WELL INFORMATION
STRT.FT         4.22960  :FIRST INDEX VALUE
STOP.FT         269.254  :LAST INDEX VALUE
STEP.FT         0.00000  :STEP
NULL.            -99999  :NULL VALUE
COMP.                    :
WELL. CARLTON (DARCY TW)  :WELL
FLD.                     :
LOC.                     :
SRVC.                    :
CTRY.               USA  :CTRY
STAT.         MINNESOTA  :STAT
CNTY.              RICE  :CNTY
DATE.        04/22/2025  :DATE
API.             886189  :API
#------------------------------------------------------------
~CURVE INFORMATION
DEPT.FT                  :DEPTH
CALIPER-IN.IN            :Caliper-In
TIME.SEC                 :Time
TCPU.'C                  :TCPU
MOTOR.                   :Motor
CALIPER-CM.CM            :Caliper-Cm
OPEN.                    :Open
CLOSE.                   :Close
ARM.                     :Arm
SPEED.FT/MIN             :Speed
TOOLPOWERVOLTAGE.V       :ToolPowerVoltage
TOOLPOWERCURRENT.MA      :ToolPowerCurrent
#------------------------------------------------------------
~PARAMETER INFORMATION
CASB1.               27  :CASB1
CASB2.              270  :CASB2
CASB3.                   :CASB3
CASB4.                   :CASB4
CASB5.                   :CASB5
CASC1.     STEEL CASING  :CASC1
CASC2.        OPEN HOLE  :CASC2
CASC3.                   :CASC3
CASC4.                   :CASC4
CASC5.                   :CASC5
CASD1.               6"  :CASD1
CASD2.               6"  :CASD2
CASD3.                   :CASD3
CASD4.                   :CASD4
CASD5.                   :CASD5
CAST1.                0  :CAST1
CAST2.               27  :CAST2
CAST3.                   :CAST3
CAST4.                   :CAST4
CAST5.                   :CAST5
DRDP.               275  :DRDP
EGL.             948 L1  :EGL
FTYP.             WATER  :FTYP
LDIR.                UP  :LDIR
LMF.             GROUND  :LMF
LOTD.               269  :LOTD
MGSCUTTINGSNO.      N/A  :MGSCUTTINGSNO
RANG.                19  :RANG
RATE.            15 FPM  :RATE
RECB.             MAYER  :RECB
RMKS.                    :RMKS
RNGD.                 W  :RNGD
RUN.                  1  :RUN
SECT.                31  :SECT
STOP_FT.            269  :STOP.FT
STRT_FT.              4  :STRT.FT
SUBS.            CDCDBB  :SUBS
SWL.                 24  :SWL
TOOL. CALIPER (GO4-CAL-PLUG-7090)  :TOOL
TOWN.               112  :TOWN
#------------------------------------------------------------
~OTHER
#------------------------------------------------------------
~A  DEPT[FT]  CALIPER-IN        TIME        TCPU       MOTOR  CALIPER-CM        OPEN       CLOSE         ARM       SPEED  TOOLPOWERV  TOOLPOWERC
# ...
     59.3336     6.31235    0.553514     20.1325     128.000     15.9489     0.00000     1.00000    -1.00000     17.5712     119.000     15.1351
     59.4976     6.31379    0.552086     20.1325     128.000     15.9525     0.00000     1.00000    -1.00000     17.7165     119.228     16.2442
     59.6616     6.29838    0.552000     20.1325     128.000     15.9143     0.00000     1.00000    -1.00000     17.7259     120.772     24.1270
     59.8256     6.29692    0.550173     20.1325     128.000     15.9107     0.00000     1.00000    -1.00000     17.7986     119.000     18.3784
     59.9896     6.32773    0.556393     20.1325     128.000     15.9870     0.00000     1.00000    -1.00000     17.7986     119.000     17.8889
     60.1536    -99999.0    0.557000     20.1325     128.000    -99999.0     0.00000     1.00000    -1.00000     17.7986     119.000     14.0541
     60.3176     6.36440    0.560651     20.1325     128.000     16.0779     0.00000     1.00000    -1.00000     17.7986     119.225     14.7852
     60.4816     6.28744    0.563737     20.1325     128.000     15.8872     0.00000     1.00000    -1.00000     17.7986     121.000     20.5405
     60.6456     6.32622    0.557614     20.1325     128.000     15.9832     0.00000     1.00000    -1.00000     17.7617     120.888     21.0258
     60.8096     6.43836    -99999.0    -99999.0    -99999.0     16.2611    -99999.0    -99999.0    -99999.0     17.4888     120.000     24.8649
     60.9736     6.24880    0.558000     20.1325     128.000     15.7914     0.00000     1.00000    -1.00000     17.6345     119.777     23.7781
     61.1376     6.30632    0.560734     20.1325     128.000     15.9339     0.00000     1.00000    -1.00000     17.6254     118.000     15.1351
     61.3016     6.34453    0.556444     20.1325     128.000     16.0286     0.00000     1.00000    -1.00000     17.5525     118.334     16.3373
     61.4656     6.31680    0.554178     20.1325     128.000     15.9599     0.00000     1.00000    -1.00000     17.5707     121.000     25.9459
     61.6296     6.39061    0.550357     20.1325     128.000     16.1428     0.00000     1.00000    -1.00000     17.7165     121.000     25.9459
     61.7936     6.30599    0.551821     20.1325     128.000     15.9331     0.00000     1.00000    -1.00000     17.7256     120.779     25.1105
     61.9576    -99999.0    0.558371     20.1325     128.000    -99999.0     0.00000     1.00000    -1.00000     17.7986     119.000     18.3784
     62.1216     6.33066    0.562640     20.1325     128.000     15.9943     0.00000     1.00000    -1.00000     17.7895     119.000     18.0219
     62.2856    -99999.0    0.563910     20.1325     128.000    -99999.0     0.00000     1.00000    -1.00000     17.6896     119.000     15.1351
     62.4496     6.51624    0.561272     20.1325     128.000     16.4541     0.00000     1.00000    -1.00000     17.4705     119.219     15.8443
     62.6136     6.39354    -99999.0    -99999.0    -99999.0     16.1501    -99999.0    -99999.0    -99999.0     17.4794     121.000     21.6216
     62.7776     6.36594    0.556000     20.1325     128.000     16.0817     0.00000     1.00000    -1.00000     17.5525     121.000     22.0924
     62.9416     6.37973    -99999.0    -99999.0    -99999.0     16.1159    -99999.0    -99999.0    -99999.0     17.5614     120.783     25.1238
     63.1056     6.47322    0.551000     20.1325     128.000     16.3475     0.00000     1.00000    -1.00000     17.6345     119.000     18.3784
     63.2696     6.45186    0.559174     20.1325     128.000     16.2946     0.00000     1.00000    -1.00000     17.6522     119.000     18.0279
     63.4336     6.37217    0.548198     20.1325     128.000     16.0971     0.00000     1.00000    -1.00000     17.7986     119.000     15.1351
     63.5976     6.39503    0.551538     20.1325     128.000     16.1537     0.00000     1.00000    -1.00000     17.7897     119.215     16.0659
     63.7616     6.42876    0.551093     20.1325     128.000     16.2373     0.00000     1.00000    -1.00000     17.7341     121.000     23.7838
     63.9256     6.30946    0.560979     20.1325     128.000     15.9417     0.00000     1.00000    -1.00000     17.8806     120.786     23.3206
     64.0896     6.29692    0.558372     20.1325     128.000     15.9107     0.00000     1.00000    -1.00000     17.8543     119.000     19.4595
     64.2536     6.34280    0.572505     20.1325     128.000     16.0243     0.00000     1.00000    -1.00000     17.6345     119.000     18.9987
     64.4176     6.46985    0.558592     20.1325     128.000     16.3391     0.00000     1.00000    -1.00000     17.6084     119.213     16.0546
     64.5816     6.37550    0.562437     20.1325     128.000     16.1054     0.00000     1.00000    -1.00000     17.3885     121.000     23.7838
     64.7456     6.37968    0.561188     20.1325     128.000     16.1157     0.00000     1.00000    -1.00000     17.4058     120.788     23.4406
     64.9096     6.32017    0.556472     20.1325     128.000     15.9683     0.00000     1.00000    -1.00000     17.5525     119.000     20.5405
     65.0736     6.29852    0.555095     20.1325     128.000     15.9146     0.00000     1.00000    -1.00000     17.5525     118.895     20.0852
     65.2376     6.38853    0.552285     20.1325     128.000     16.1377     0.00000     1.00000    -1.00000     17.5783     118.000     16.2162
     65.4016     6.38288    0.556524     20.1325     128.000     16.1237     0.00000     1.00000    -1.00000     17.7986     118.210     16.4428
     65.5656     6.32024    0.567855     20.1325     128.000     15.9684     0.00000     1.00000    -1.00000     17.7814     120.000     18.3784
     65.7296    -99999.0    0.577139     20.1325     128.000    -99999.0     0.00000     1.00000    -1.00000     17.6345     120.104     19.1671
     65.8936     6.41501    0.574384     20.1325     128.000     16.2033     0.00000     1.00000    -1.00000     17.5833     121.000     25.9459
     66.0576     6.58272    0.578519     20.1325     128.000     16.6188     0.00000     1.00000    -1.00000     17.1424     120.792     25.1607
     66.2216     6.49389    0.565447     20.1325     128.000     16.3987     0.00000     1.00000    -1.00000     17.1254     119.000     18.0426
     66.3856     6.39107    -99999.0    -99999.0    -99999.0     16.1439    -99999.0    -99999.0    -99999.0     17.0377     119.000     15.1351
     66.5496     6.57931    0.557000     20.1325     128.000     16.6104     0.00000     1.00000    -1.00000     17.5525     119.206     15.8027
     66.7136     7.17931    0.551584     20.1325     128.000     18.0971     0.00000     1.00000    -1.00000     17.5693     121.000     21.6216
     66.8776    -99999.0    0.550098     20.1325     128.000    -99999.0     0.00000     1.00000    -1.00000     17.7165     120.898     21.9539
     67.0416     6.34753    0.544586     20.1325     128.000     16.0361     0.00000     1.00000    -1.00000     17.7333     120.000     24.8649
     67.2056     6.33232    0.554824     20.1325     128.000     15.9984     0.00000     1.00000    -1.00000     17.8806     119.796     23.7622
     67.3696    -99999.0    0.550589     20.1325     128.000    -99999.0     0.00000     1.00000    -1.00000     17.8889     118.203     14.4937
     67.5336     6.49937    -99999.0    -99999.0    -99999.0     16.4123    -99999.0    -99999.0    -99999.0     17.9626     120.000     18.3784
     67.6976     6.45376    0.560000     20.1325     128.000     16.2993     0.00000     1.00000    -1.00000     17.9294     120.101     19.0348
     67.8616    -99999.0    0.565406     20.1325     128.000    -99999.0     0.00000     1.00000    -1.00000     17.6262     121.000     24.8649
     68.0256     6.39814    -99999.0    -99999.0    -99999.0     16.1615    -99999.0    -99999.0    -99999.0     17.5525     120.799     24.5381
     68.1896     6.50448    0.563000     20.1325     128.000     16.4250     0.00000     1.00000    -1.00000     17.5278     119.000     21.6216
     68.3536     6.37956    0.559399     20.1325     128.000     16.1154     0.00000     1.00000    -1.00000     17.3064     119.000     20.8638
