#------------------------------------------------------------
~VERSION INFORMATION
VERS.               2.0  :CWLS LOG ASCII STANDARD - VERSION 2.0
WRAP.                NO  :ONE LINE PER DEPTH STEP
#------------------------------------------------------------
~WELL INFORMATION
STRT.FT         4.22960  :FIRST INDEX VALUE
STOP.FT         269.254  :LAST INDEX VALUE
STEP.FT         0.00000  :STEP
NULL.            -99999  :NULL VALUE
COMP.                    :
WELL. CARLTON (DARCY TW)  :WELL
FLD.                     :
LOC.                     :
SRVC.                    :
CTRY.               USA  :CTRY
STAT.         MINNESOTA  :STAT
CNTY.              RICE  :CNTY
DATE.        04/22/2025  :DATE
API.             886189  :API
#------------------------------------------------------------
~CURVE INFORMATION
DEPT.FT                  :DEPTH
CALIPER-IN.IN            :Caliper-In
TIME.SEC                 :Time
TCPU.'C                  :TCPU
MOTOR.                   :Motor
CALIPER-CM.CM            :Caliper-Cm
OPEN.                    :Open
CLOSE.                   :Close
ARM.                     :Arm
SPEED.FT/MIN             :Speed
TOOLPOWERVOLTAGE.V       :ToolPowerVoltage
TOOLPOWERCURRENT.MA      :ToolPowerCurrent
#------------------------------------------------------------
~PARAMETER INFORMATION
CASB1.               27  :CASB1
CASB2.              270  :CASB2
CASB3.                   :CASB3
CASB4.                   :CASB4
CASB5.                   :CASB5
CASC1.     STEEL CASING  :CASC1
CASC2.        OPEN HOLE  :CASC2
CASC3.                   :CASC3
CASC4.                   :CASC4
CASC5.                   :CASC5
CASD1.               6"  :CASD1
CASD2.               6"  :CASD2
CASD3.                   :CASD3
CASD4.                   :CASD4
CASD5.                   :CASD5
CAST1.                0  :CAST1
CAST2.               27  :CAST2
CAST3.                   :CAST3
CAST4.                   :CAST4
CAST5.                   :CAST5
DRDP.               275  :DRDP
EGL.             948 L1  :EGL
FTYP.             WATER  :FTYP
LDIR.                UP  :LDIR
LMF.             GROUND  :LMF
LOTD.               269  :LOTD
MGSCUTTINGSNO.      N/A  :MGSCUTTINGSNO
RANG.                19  :RANG
RATE.            15 FPM  :RATE
RECB.             MAYER  :RECB
RMKS.                    :RMKS
RNGD.                 W  :RNGD
RUN.                  1  :RUN
SECT.                31  :SECT
STOP_FT.            269  :STOP.FT
STRT_FT.              4  :STRT.FT
SUBS.            CDCDBB  :SUBS
SWL.                 24  :SWL
TOOL. CALIPER (GO4-CAL-PLUG-7090)  :TOOL
TOWN.               112  :TOWN
#------------------------------------------------------------
~OTHER
#------------------------------------------------------------
~A  DEPT[FT]  CALIPER-IN        TIME        TCPU       MOTOR  CALIPER-CM        OPEN       CLOSE         ARM       SPEED  TOOLPOWERV  TOOLPOWERC
# ...
     197.094     6.14001    -99999.0    -99999.0    -99999.0     15.5219    -99999.0    -99999.0    -99999.0     17.6263     120.799     24.9661
     197.258     6.16867    0.557000     20.3498     128.000     15.5929     0.00000     1.00000    -1.00000     17.6345     121.000     25.9459
     197.422     6.15525    0.561891     20.3498     128.000     15.5596     0.00000     1.00000    -1.00000     17.6345     119.203     23.0313
     197.586     6.09796    0.563302     20.3498     128.000     15.4176     0.00000     1.00000    -1.00000     17.6345     119.000     22.7027
     197.750     6.07760    0.560207     20.3498     128.000     15.3672     0.00000     1.00000    -1.00000     17.6345     118.102     15.9054
     197.914     6.06583    0.559698     20.3498     128.000     15.3380     0.00000     1.00000    -1.00000     17.4872     118.000     15.1351
     198.078     6.07250    0.557209     20.3498     128.000     15.3546     0.00000     1.00000    -1.00000     17.4705     120.693     21.9285
     198.242     6.07760    0.554605     20.3498     128.000     15.3672     0.00000     1.00000    -1.00000     17.6177     121.000     22.7027
     198.406     6.07760    0.551908     20.3498     128.000     15.3672     0.00000     1.00000    -1.00000     17.6345     119.206     22.7027
     198.570     6.08936    0.551000     20.3498     128.000     15.3963     0.00000     1.00000    -1.00000     17.7081     119.000     14.9449
     198.734     6.10623    0.551000     20.3498     128.000     15.4381     0.00000     1.00000    -1.00000     17.7165     119.000     14.0541
     198.898     6.11135    0.553089     20.3498     128.000     15.4508     0.00000     1.00000    -1.00000     17.8636     119.896     23.7448
     199.062     6.11135    0.556089     20.3498     128.000     15.4508     0.00000     1.00000    -1.00000     17.8071     120.000     24.8649
     199.226     6.11135    0.557000     20.3498     128.000     15.4508     0.00000     1.00000    -1.00000     17.7986     120.000     24.8649
     199.390    -99999.0    0.562565     20.3498     128.000    -99999.0     0.00000     1.00000    -1.00000     17.7251     120.000     24.8649
     199.554     6.09447    0.563609     20.3498     128.000     15.4090     0.00000     1.00000    -1.00000     17.7165     118.209     18.0888
     199.718     6.09447    0.561610     20.3498     128.000     15.4090     0.00000     1.00000    -1.00000     17.4963     118.000     17.2973
     199.882     6.11792    0.559610     20.3498     128.000     15.4671     0.00000     1.00000    -1.00000     17.4705     118.895     15.3623
     200.046     6.12822    -99999.0    -99999.0    -99999.0     15.4926    -99999.0    -99999.0    -99999.0     17.5439     119.000     15.1351
     200.210    -99999.0    0.559000     20.3498     128.000    -99999.0     0.00000     1.00000    -1.00000     17.5525     120.789     21.9041
     200.374     6.11135    0.559000     20.3498     128.000     15.4508     0.00000     1.00000    -1.00000     17.5525     119.212     22.7027
     200.538     6.11135    0.556224     20.3498     128.000     15.4508     0.00000     1.00000    -1.00000     17.6991     119.000     22.7027
     200.702     6.12305    0.554306     20.3498     128.000     15.4798     0.00000     1.00000    -1.00000     17.7165     118.106     14.9745
     200.866     6.17500    -99999.0    -99999.0    -99999.0     15.6086    -99999.0    -99999.0    -99999.0     17.6433     118.000     14.0541
     201.030     6.19570    0.566000     20.3498     128.000     15.6598     0.00000     1.00000    -1.00000     17.6345     119.786     17.9161
     201.194     6.17232    0.561843     20.3498     128.000     15.6019     0.00000     1.00000    -1.00000     17.6345     120.000     18.3784
     201.358     6.15027    0.564156     20.3498     128.000     15.5473     0.00000     1.00000    -1.00000     17.6345     120.893     25.1330
     201.522     6.12173    0.560461     20.3498     128.000     15.4765     0.00000     1.00000    -1.00000     17.4881     121.000     25.9459
     201.686     6.09967    0.556616     20.3498     128.000     15.4219     0.00000     1.00000    -1.00000     17.4705     118.324     16.3022
     201.850     6.10615    0.557384     20.3498     128.000     15.4379     0.00000     1.00000    -1.00000     17.5436     120.676     19.9561
     202.014     6.12301    0.553850     20.3498     128.000     15.4797     0.00000     1.00000    -1.00000     17.6256     121.000     20.5405
     202.178     6.18653    0.550617     20.3498     128.000     15.6371     0.00000     1.00000    -1.00000     17.6345     121.000     25.3587
     202.342     6.13096    0.551382     20.3498     128.000     15.4994     0.00000     1.00000    -1.00000     17.7076     121.000     25.9459
     202.506     6.10613    0.549927     20.3498     128.000     15.4379     0.00000     1.00000    -1.00000     17.7165     119.218     24.0200
     202.670     6.11135    0.553834     20.3498     128.000     15.4508     0.00000     1.00000    -1.00000     17.8626     119.000     23.7838
     202.834     6.14628    0.555310     20.3498     128.000     15.5374     0.00000     1.00000    -1.00000     17.8806     118.110     15.1214
     202.998     6.10375    0.557760     20.3498     128.000     15.4320     0.00000     1.00000    -1.00000     17.8076     118.000     14.0541
     203.162     6.08924    0.566588     20.3498     128.000     15.3960     0.00000     1.00000    -1.00000     17.7986     118.000     14.0541
     203.326     6.08284    0.564484     20.3498     128.000     15.3802     0.00000     1.00000    -1.00000     17.7256     118.000     14.0541
     203.490    -99999.0    0.558554     20.3498     128.000    -99999.0     0.00000     1.00000    -1.00000     17.4248     119.779     16.9382
     203.654     6.07760    0.555622     20.3498     128.000     15.3672     0.00000     1.00000    -1.00000     17.3885     120.000     24.9859
     203.818     6.07760    0.555000     20.3498     128.000     15.3672     0.00000     1.00000    -1.00000     17.5342     120.000     25.9459
     203.982     6.07760    0.555689     20.3498     128.000     15.3672     0.00000     1.00000    -1.00000     17.5525     118.223     17.3015
     204.146    -99999.0    -99999.0    -99999.0    -99999.0    -99999.0    -99999.0    -99999.0    -99999.0     17.7710     118.000     16.2162
     204.310     6.07760    0.555000     20.3498     128.000     15.3672     0.00000     1.00000    -1.00000     17.7986     119.776     16.2162
     204.474     6.08921    0.557751     20.3498     128.000     15.3960     0.00000     1.00000    -1.00000     17.7257     120.000     16.2162
     204.638    -99999.0    0.561750     20.3498     128.000    -99999.0     0.00000     1.00000    -1.00000     17.7165     120.887     23.8916
     204.802     6.07760    -99999.0    -99999.0    -99999.0     15.3672    -99999.0    -99999.0    -99999.0     17.6438     121.000     24.8649
     204.966    -99999.0    0.563000     20.3498     128.000    -99999.0     0.00000     1.00000    -1.00000     17.5618     120.113     25.8237
     205.130     6.07760    0.563000     20.3498     128.000     15.3672     0.00000     1.00000    -1.00000     17.5525     118.226     18.2766
     205.294     6.07760    -99999.0    -99999.0    -99999.0     15.3672    -99999.0    -99999.0    -99999.0     17.4798     118.000     17.2973
     205.458    -99999.0    0.559000     20.3498     128.000    -99999.0     0.00000     1.00000    -1.00000     17.4705     118.886     15.3811
     205.622     6.09447    -99999.0    -99999.0    -99999.0     15.4090    -99999.0    -99999.0    -99999.0     17.5431     119.000     15.1351
     205.786     6.08291    0.551000     20.3498     128.000     15.3804     0.00000     1.00000    -1.00000     17.5525     120.771     24.7088
     205.950     6.08917    0.551685     20.3498     128.000     15.3959     0.00000     1.00000    -1.00000     17.6977     121.000     25.9459
     206.114     6.11759    -99999.0    -99999.0    -99999.0     15.4663    -99999.0    -99999.0    -99999.0     17.7891     119.230     23.0753
