#------------------------------------------------------------
~VERSION INFORMATION
VERS.               2.0  :CWLS LOG ASCII STANDARD - VERSION 2.0
WRAP.                NO  :ONE LINE PER DEPTH STEP
#------------------------------------------------------------
~WELL INFORMATION
STRT.FT         4.22960  :FIRST INDEX VALUE
STOP.FT         269.254  :LAST INDEX VALUE
STEP.FT         0.00000  :STEP
NULL.            -99999  :NULL VALUE
COMP.                    :
WELL. CARLTON (DARCY TW)  :WELL
FLD.                     :
LOC.                     :
SRVC.                    :
CTRY.               USA  :CTRY
STAT.         MINNESOTA  :STAT
CNTY.              RICE  :CNTY
DATE.        04/22/2025  :DATE
API.             886189  :API
#------------------------------------------------------------
~CURVE INFORMATION
DEPT.FT                  :DEPTH
CALIPER-IN.IN            :Caliper-In
TIME.SEC                 :Time
TCPU.'C                  :TCPU
MOTOR.                   :Motor
CALIPER-CM.CM            :Caliper-Cm
OPEN.                    :Open
CLOSE.                   :Close
ARM.                     :Arm
SPEED.FT/MIN             :Speed
TOOLPOWERVOLTAGE.V       :ToolPowerVoltage
TOOLPOWERCURRENT.MA      :ToolPowerCurrent
#------------------------------------------------------------
~PARAMETER INFORMATION
CASB1.               27  :CASB1
CASB2.              270  :CASB2
CASB3.                   :CASB3
CASB4.                   :CASB4
CASB5.                   :CASB5
CASC1.     STEEL CASING  :CASC1
CASC2.        OPEN HOLE  :CASC2
CASC3.                   :CASC3
CASC4.                   :CASC4
CASC5.                   :CASC5
CASD1.               6"  :CASD1
CASD2.               6"  :CASD2
CASD3.                   :CASD3
CASD4.                   :CASD4
CASD5.                   :CASD5
CAST1.                0  :CAST1
CAST2.               27  :CAST2
CAST3.                   :CAST3
CAST4.                   :CAST4
CAST5.                   :CAST5
DRDP.               275  :DRDP
EGL.             948 L1  :EGL
FTYP.             WATER  :FTYP
LDIR.                UP  :LDIR
LMF.             GROUND  :LMF
LOTD.               269  :LOTD
MGSCUTTINGSNO.      N/A  :MGSCUTTINGSNO
RANG.                19  :RANG
RATE.            15 FPM  :RATE
RECB.             MAYER  :RECB
RMKS.                    :RMKS
RNGD.                 W  :RNGD
RUN.                  1  :RUN
SECT.                31  :SECT
STOP_FT.            269  :STOP.FT
STRT_FT.              4  :STRT.FT
SUBS.            CDCDBB  :SUBS
SWL.                 24  :SWL
TOOL. CALIPER (GO4-CAL-PLUG-7090)  :TOOL
TOWN.               112  :TOWN
#------------------------------------------------------------
~OTHER
#------------------------------------------------------------
~A  DEPT[FT]  CALIPER-IN        TIME        TCPU       MOTOR  CALIPER-CM        OPEN       CLOSE         ARM       SPEED  TOOLPOWERV  TOOLPOWERC
# ...
     68.5176     6.31886    -99999.0    -99999.0    -99999.0     15.9650    -99999.0    -99999.0    -99999.0     17.3474     119.000     14.0541
     68.6816     6.35932    0.554000     20.1325     128.000     16.0653     0.00000     1.00000    -1.00000     17.7165     119.199     14.5929
     68.8456     6.39475    0.555799     20.1325     128.000     16.1531     0.00000     1.00000    -1.00000     17.7084     121.000     20.1045
     69.0096     6.39814    0.555101     20.1325     128.000     16.1615     0.00000     1.00000    -1.00000     17.6345     121.000     25.9459
     69.1736     6.36781    0.555899     20.1325     128.000     16.0863     0.00000     1.00000    -1.00000     17.6507     120.703     25.0908
     69.3376     6.36440    0.559595     20.1325     128.000     16.0779     0.00000     1.00000    -1.00000     17.7824     118.000     17.2973
     69.5016     6.34925    0.560898     20.1325     128.000     16.0403     0.00000     1.00000    -1.00000     17.6345     118.098     16.9782
     69.6656     6.54450    0.562796     20.1325     128.000     16.5241     0.00000     1.00000    -1.00000     17.6265     119.000     14.0541
     69.8296     6.56685    0.563000     20.1325     128.000     16.5795     0.00000     1.00000    -1.00000     17.5525     119.196     14.5830
     69.9936     6.40027    0.563000     20.1325     128.000     16.1668     0.00000     1.00000    -1.00000     17.5445     121.000     19.4595
     70.1576     6.48724    0.558513     20.1325     128.000     16.3822     0.00000     1.00000    -1.00000     17.4705     121.000     20.0909
     70.3216     6.43883    0.556206     20.1325     128.000     16.2623     0.00000     1.00000    -1.00000     17.4784     120.806     25.6309
     70.4856     6.43189    0.547928     20.1325     128.000     16.2451     0.00000     1.00000    -1.00000     17.5763     119.000     22.7027
     70.6496     6.61340    0.547897     20.1325     128.000     16.6949     0.00000     1.00000    -1.00000     17.7986     118.903     21.9718
     70.8136    -99999.0    0.554274     20.1325     128.000    -99999.0     0.00000     1.00000    -1.00000     17.8065     118.000     15.1351
     70.9776     6.39814    0.554104     20.1325     128.000     16.1615     0.00000     1.00000    -1.00000     17.8806     118.192     15.3428
     71.1416    -99999.0    0.551312     20.1325     128.000    -99999.0     0.00000     1.00000    -1.00000     17.8727     120.000     17.2973
     71.3056     6.33066    0.562643     20.1325     128.000     15.9943     0.00000     1.00000    -1.00000     17.7986     120.096     17.9173
     71.4696     6.34577    -99999.0    -99999.0    -99999.0     16.0317    -99999.0    -99999.0    -99999.0     17.7751     121.000     23.7838
     71.6336     6.81563    0.565000     20.1325     128.000     17.1960     0.00000     1.00000    -1.00000     17.5525     120.810     23.5783
     71.7976     6.35729    -99999.0    -99999.0    -99999.0     16.0602    -99999.0    -99999.0    -99999.0     17.5525     119.000     21.6216
     71.9616     6.53838    0.564000     20.1325     128.000     16.5090     0.00000     1.00000    -1.00000     17.5447     118.905     20.9060
     72.1256     6.37072    0.554162     20.1325     128.000     16.0935     0.00000     1.00000    -1.00000     17.4705     118.000     14.0541
     72.2896     6.48328    0.559259     20.1325     128.000     16.3724     0.00000     1.00000    -1.00000     17.4859     118.000     14.0541
     72.4536     6.55968    0.552850     20.1325     128.000     16.5617     0.00000     1.00000    -1.00000     17.6345     118.187     15.1687
     72.6176     6.47641    0.552000     20.1325     128.000     16.3554     0.00000     1.00000    -1.00000     17.6499     120.000     25.9459
     72.7816     6.54097    0.553787     20.1325     128.000     16.5154     0.00000     1.00000    -1.00000     17.7986     120.000     25.9459
     72.9456     6.41439    0.559358     20.1325     128.000     16.2017     0.00000     1.00000    -1.00000     17.7986     120.000     25.9459
     73.1096    -99999.0    0.561786     20.1325     128.000    -99999.0     0.00000     1.00000    -1.00000     17.7986     119.815     24.9434
     73.2736     6.48250    0.559322     20.1325     128.000     16.3705     0.00000     1.00000    -1.00000     17.7758     118.000     15.1351
     73.4376     6.40724    0.562569     20.1325     128.000     16.1840     0.00000     1.00000    -1.00000     17.5525     118.184     15.4343
     73.6016     6.41319    0.565676     20.1325     128.000     16.1988     0.00000     1.00000    -1.00000     17.5525     120.092     19.0744
     73.7656     6.39997    -99999.0    -99999.0    -99999.0     16.1660    -99999.0    -99999.0    -99999.0     17.5450     121.000     25.9459
     73.9296     6.53350    0.558000     20.1325     128.000     16.4969     0.00000     1.00000    -1.00000     17.4705     120.817     25.4517
     74.0936     6.51991    0.552652     20.3261     128.000     16.4632     0.00000     1.00000    -1.00000     17.4854     119.000     20.5405
     74.2576    -99999.0    0.549327     20.1562     128.000    -99999.0     0.00000     1.00000    -1.00000     17.6345     119.000     19.8523
     74.4216     6.95487    0.551672     20.1325     128.000     17.5410     0.00000     1.00000    -1.00000     17.6568     119.000     12.9730
     74.5856     7.66091    0.548438     20.1325     128.000     19.2905     0.00000     1.00000    -1.00000     17.8806     119.090     13.4620
     74.7496     7.13203    0.555122     20.1325     128.000     17.9800     0.00000     1.00000    -1.00000     17.8806     120.000     18.3784
     74.9136     6.51557    -99999.0    -99999.0    -99999.0     16.4525    -99999.0    -99999.0    -99999.0     17.8806     120.090     19.0591
     75.0776     6.29867    0.551000     20.1325     128.000     15.9150     0.00000     1.00000    -1.00000     17.8806     120.731     25.0737
     75.2416     6.28005    0.572347     20.1325     128.000     15.8689     0.00000     1.00000    -1.00000     17.8439     118.000     16.2162
     75.4056     6.28005    0.560772     20.1325     128.000     15.8689     0.00000     1.00000    -1.00000     17.4705     118.178     16.3126
     75.5696    -99999.0    0.564334     20.1325     128.000    -99999.0     0.00000     1.00000    -1.00000     17.4632     120.000     17.2973
     75.7336    -99999.0    0.557890     20.1325     128.000    -99999.0     0.00000     1.00000    -1.00000     17.3885     120.089     17.7765
     75.8976     6.33066    0.556112     20.1325     128.000     15.9943     0.00000     1.00000    -1.00000     17.3957     121.000     22.7027
     76.0616     6.27073    0.552447     20.1325     128.000     15.8458     0.00000     1.00000    -1.00000     17.4705     120.912     22.7980
     76.2256     6.32310    -99999.0    -99999.0    -99999.0     15.9755    -99999.0    -99999.0    -99999.0     17.4993     120.000     23.7838
     76.3896     6.42051    -99999.0    -99999.0    -99999.0     16.2169    -99999.0    -99999.0    -99999.0     17.7986     119.912     23.2157
     76.5536     6.52171    0.560000     20.1325     128.000     16.4677     0.00000     1.00000    -1.00000     17.7986     119.087     17.2029
     76.7176     6.66780    0.557338     20.1325     128.000     16.8297     0.00000     1.00000    -1.00000     17.7843     120.000     16.2162
     76.8816     6.41564    0.564095     20.1325     128.000     16.2048     0.00000     1.00000    -1.00000     17.6345     120.000     17.0614
     77.0456     6.39623    0.564113     20.1325     128.000     16.1567     0.00000     1.00000    -1.00000     17.6274     120.000     25.9459
     77.2096     6.56263    0.564000     20.1325     128.000     16.5691     0.00000     1.00000    -1.00000     17.5525     119.827     25.1993
     77.3736     6.61362    0.563114     20.1325     128.000     16.6954     0.00000     1.00000    -1.00000     17.5384     118.000     17.2973
     77.5376     6.91635    0.559456     20.1325     128.000     17.4455     0.00000     1.00000    -1.00000     17.3885     118.086     17.0188
