#------------------------------------------------------------
~VERSION INFORMATION
VERS.               2.0  :CWLS LOG ASCII STANDARD - VERSION 2.0
WRAP.                NO  :ONE LINE PER DEPTH STEP
#------------------------------------------------------------
~WELL INFORMATION
STRT.FT         4.22960  :FIRST INDEX VALUE
STOP.FT         269.254  :LAST INDEX VALUE
STEP.FT         0.00000  :STEP
NULL.            -99999  :NULL VALUE
COMP.                    :
WELL. CARLTON (DARCY TW)  :WELL
FLD.                     :
LOC.                     :
SRVC.                    :
CTRY.               USA  :CTRY
STAT.         MINNESOTA  :STAT
CNTY.              RICE  :CNTY
DATE.        04/22/2025  :DATE
API.             886189  :API
#------------------------------------------------------------
~CURVE INFORMATION
DEPT.FT                  :DEPTH
CALIPER-IN.IN            :Caliper-In
TIME.SEC                 :Time
TCPU.'C                  :TCPU
MOTOR.                   :Motor
CALIPER-CM.CM            :Caliper-Cm
OPEN.                    :Open
CLOSE.                   :Close
ARM.                     :Arm
SPEED.FT/MIN             :Speed
TOOLPOWERVOLTAGE.V       :ToolPowerVoltage
TOOLPOWERCURRENT.MA      :ToolPowerCurrent
#------------------------------------------------------------
~PARAMETER INFORMATION
CASB1.               27  :CASB1
CASB2.              270  :CASB2
CASB3.                   :CASB3
CASB4.                   :CASB4
CASB5.                   :CASB5
CASC1.     STEEL CASING  :CASC1
CASC2.        OPEN HOLE  :CASC2
CASC3.                   :CASC3
CASC4.                   :CASC4
CASC5.                   :CASC5
CASD1.               6"  :CASD1
CASD2.               6"  :CASD2
CASD3.                   :CASD3
CASD4.                   :CASD4
CASD5.                   :CASD5
CAST1.                0  :CAST1
CAST2.               27  :CAST2
CAST3.                   :CAST3
CAST4.                   :CAST4
CAST5.                   :CAST5
DRDP.               275  :DRDP
EGL.             948 L1  :EGL
FTYP.             WATER  :FTYP
LDIR.                UP  :LDIR
LMF.             GROUND  :LMF
LOTD.               269  :LOTD
MGSCUTTINGSNO.      N/A  :MGSCUTTINGSNO
RANG.                19  :RANG
RATE.            15 FPM  :RATE
RECB.             MAYER  :RECB
RMKS.                    :RMKS
RNGD.                 W  :RNGD
RUN.                  1  :RUN
SECT.                31  :SECT
STOP_FT.            269  :STOP.FT
STRT_FT.              4  :STRT.FT
SUBS.            CDCDBB  :SUBS
SWL.                 24  :SWL
TOOL. CALIPER (GO4-CAL-PLUG-7090)  :TOOL
TOWN.               112  :TOWN
#------------------------------------------------------------
~OTHER
#------------------------------------------------------------
~A  DEPT[FT]  CALIPER-IN        TIME        TCPU       MOTOR  CALIPER-CM        OPEN       CLOSE         ARM       SPEED  TOOLPOWERV  TOOLPOWERC
# ...
     123.622     6.13881    0.553814     20.1325     128.000     15.5189     0.00000     1.00000    -1.00000     17.7986     120.000     17.2973
     123.786     6.14509    0.560510     20.1325     128.000     15.5344     0.00000     1.00000    -1.00000     17.7986     120.014     17.4161
     123.950     6.13136    -99999.0    -99999.0    -99999.0     15.5004    -99999.0    -99999.0    -99999.0     17.7986     121.000     25.9459
     124.114     6.12822    0.563000     20.1325     128.000     15.4926     0.00000     1.00000    -1.00000     17.7953     120.974     25.8608
     124.278     6.12822    0.563000     20.1325     128.000     15.4926     0.00000     1.00000    -1.00000     17.5525     119.000     19.4595
     124.442     6.23789    0.562187     20.3091     128.000     15.7644     0.00000     1.00000    -1.00000     17.5504     119.000     19.3910
     124.606     6.34541    0.556313     20.1733     128.000     16.0308     0.00000     1.00000    -1.00000     17.3905     119.000     14.0541
     124.770     6.28220    0.557437     20.1325     128.000     15.8742     0.00000     1.00000    -1.00000     17.5525     119.012     14.1192
     124.934     6.22209    0.555564     20.1325     128.000     15.7252     0.00000     1.00000    -1.00000     17.5554     120.012     19.5362
     125.098     6.18519    0.559870     20.3088     128.000     15.6338     0.00000     1.00000    -1.00000     17.7986     121.000     25.9459
     125.262     6.15145    0.552075     20.1735     128.000     15.5502     0.00000     1.00000    -1.00000     17.7958     120.977     25.8968
     125.426     6.13140    0.560545     20.1325     128.000     15.5005     0.00000     1.00000    -1.00000     17.5525     119.000     21.6216
     125.590     6.12822    0.562189     20.1325     128.000     15.4926     0.00000     1.00000    -1.00000     17.5543     119.011     21.5635
     125.754     6.12822    0.562811     20.3086     128.000     15.4926     0.00000     1.00000    -1.00000     17.7131     120.000     16.2162
     125.918     6.12822    0.563000     20.1737     128.000     15.4926     0.00000     1.00000    -1.00000     17.3885     120.000     16.2162
     126.082     6.12822    0.562190     20.1325     128.000     15.4926     0.00000     1.00000    -1.00000     17.3901     120.000     16.2162
     126.246     6.11455    0.558761     20.1325     128.000     15.4588     0.00000     1.00000    -1.00000     17.5525     120.010     16.2907
     126.410     6.12500    0.555571     20.1325     128.000     15.4847     0.00000     1.00000    -1.00000     17.5533     120.981     23.7529
     126.574     6.14187    0.554191     20.1325     128.000     15.5265     0.00000     1.00000    -1.00000     17.6345     119.000     20.5405
     126.738     6.14509    0.554000     20.1325     128.000     15.5344     0.00000     1.00000    -1.00000     17.6353     119.000     20.4816
     126.902     6.14509    0.554000     20.1325     128.000     15.5344     0.00000     1.00000    -1.00000     17.7165     119.000     14.0541
     127.066     6.14509    0.554809     20.1325     128.000     15.5344     0.00000     1.00000    -1.00000     17.7172     119.009     14.0910
     127.230     6.13145    0.555000     20.1325     128.000     15.5006     0.00000     1.00000    -1.00000     17.7979     120.000     18.3784
     127.394     6.12822    0.558232     20.1325     128.000     15.4926     0.00000     1.00000    -1.00000     17.7165     120.008     18.4390
     127.558     6.11459    0.557384     20.1325     128.000     15.4589     0.00000     1.00000    -1.00000     17.7159     121.000     25.9459
     127.722     6.11135    0.561846     20.1325     128.000     15.4508     0.00000     1.00000    -1.00000     17.6345     120.985     25.8970
     127.886     6.11135    0.559771     20.1325     128.000     15.4508     0.00000     1.00000    -1.00000     17.6345     119.000     19.4595
     128.050     6.12496    0.563036     20.3079     128.000     15.4846     0.00000     1.00000    -1.00000     17.6345     119.000     19.4139
     128.214     6.11460    0.559159     20.1745     128.000     15.4589     0.00000     1.00000    -1.00000     17.6334     119.014     13.0244
     128.378     6.11135    0.557193     20.1325     128.000     15.4508     0.00000     1.00000    -1.00000     17.4705     121.000     20.5405
     128.542     6.12495    0.554581     20.1325     128.000     15.4845     0.00000     1.00000    -1.00000     17.4715     121.000     20.5748
     128.706     6.11462    0.557224     20.1325     128.000     15.4589     0.00000     1.00000    -1.00000     17.6350     121.000     25.9459
     128.870     6.11135    0.557194     20.1325     128.000     15.4508     0.00000     1.00000    -1.00000     17.7165     120.983     25.8971
     129.034     6.11135    0.557000     20.1325     128.000     15.4508     0.00000     1.00000    -1.00000     17.7161     118.000     17.2973
     129.198     6.11135    0.562637     20.1325     128.000     15.4508     0.00000     1.00000    -1.00000     17.6345     118.010     17.2917
     129.362    -99999.0    0.559975     20.3074     128.000    -99999.0     0.00000     1.00000    -1.00000     17.6341     120.000     16.2162
     129.526     6.11135    0.560610     20.1749     128.000     15.4508     0.00000     1.00000    -1.00000     17.5525     120.005     16.2571
     129.690     6.11135    0.563414     20.1325     128.000     15.4508     0.00000     1.00000    -1.00000     17.5525     120.991     24.8505
     129.854     6.11135    0.559175     20.3072     128.000     15.4508     0.00000     1.00000    -1.00000     17.5525     119.000     21.6216
     130.018     6.11135    -99999.0    -99999.0    -99999.0     15.4508    -99999.0    -99999.0    -99999.0     17.5525     119.000     21.5916
     130.182    -99999.0    0.554000     20.1325     128.000    -99999.0     0.00000     1.00000    -1.00000     17.5528     119.000     14.0541
     130.346    -99999.0    0.555607     20.1325     128.000    -99999.0     0.00000     1.00000    -1.00000     17.6345     119.007     14.0763
     130.510     6.11135    0.552787     20.1325     128.000     15.4508     0.00000     1.00000    -1.00000     17.6350     121.000     20.5405
     130.674     6.11135    0.553606     20.1325     128.000     15.4508     0.00000     1.00000    -1.00000     17.7986     120.997     20.5562
     130.838     6.11135    -99999.0    -99999.0    -99999.0     15.4508    -99999.0    -99999.0    -99999.0     17.7983     120.000     25.9459
     131.002     6.19256    -99999.0    -99999.0    -99999.0     15.6521    -99999.0    -99999.0    -99999.0     17.7165     119.998     25.9229
     131.166     6.14491    0.558000     20.1325     128.000     15.5340     0.00000     1.00000    -1.00000     17.7164     119.000     16.2162
     131.330     6.12822    0.559604     20.1325     128.000     15.4926     0.00000     1.00000    -1.00000     17.6345     119.000     16.2162
     131.494     6.20936    0.558397     20.3067     128.000     15.6937     0.00000     1.00000    -1.00000     17.6345     119.003     16.2283
     131.658     6.18888    0.561206     20.1757     128.000     15.6429     0.00000     1.00000    -1.00000     17.6344     121.000     23.7838
     131.822     6.12477    0.560398     20.1325     128.000     15.4841     0.00000     1.00000    -1.00000     17.5525     120.999     23.7838
     131.986     6.11135    0.563204     20.1325     128.000     15.4508     0.00000     1.00000    -1.00000     17.5525     120.000     23.7838
     132.150     6.11135    0.553592     20.3064     128.000     15.4508     0.00000     1.00000    -1.00000     17.5525     120.000     23.7838
     132.314     6.11135    0.558203     20.1759     128.000     15.4508     0.00000     1.00000    -1.00000     17.5525     120.000     17.2973
     132.478     6.11135    0.558400     20.3063     128.000     15.4508     0.00000     1.00000    -1.00000     17.6345     120.000     17.2973
     132.642     6.09785    0.561999     20.3498     128.000     15.4174     0.00000     1.00000    -1.00000     17.6345     120.000     17.2973
