#------------------------------------------------------------
~VERSION INFORMATION
VERS.               2.0  :CWLS LOG ASCII STANDARD - VERSION 2.0
WRAP.                NO  :ONE LINE PER DEPTH STEP
#------------------------------------------------------------
~WELL INFORMATION
STRT.FT         4.22960  :FIRST INDEX VALUE
STOP.FT         269.254  :LAST INDEX VALUE
STEP.FT         0.00000  :STEP
NULL.            -99999  :NULL VALUE
COMP.                    :
WELL. CARLTON (DARCY TW)  :WELL
FLD.                     :
LOC.                     :
SRVC.                    :
CTRY.               USA  :CTRY
STAT.         MINNESOTA  :STAT
CNTY.              RICE  :CNTY
DATE.        04/22/2025  :DATE
API.             886189  :API
#------------------------------------------------------------
~CURVE INFORMATION
DEPT.FT                  :DEPTH
CALIPER-IN.IN            :Caliper-In
TIME.SEC                 :Time
TCPU.'C                  :TCPU
MOTOR.                   :Motor
CALIPER-CM.CM            :Caliper-Cm
OPEN.                    :Open
CLOSE.                   :Close
ARM.                     :Arm
SPEED.FT/MIN             :Speed
TOOLPOWERVOLTAGE.V       :ToolPowerVoltage
TOOLPOWERCURRENT.MA      :ToolPowerCurrent
#------------------------------------------------------------
~PARAMETER INFORMATION
CASB1.               27  :CASB1
CASB2.              270  :CASB2
CASB3.                   :CASB3
CASB4.                   :CASB4
CASB5.                   :CASB5
CASC1.     STEEL CASING  :CASC1
CASC2.        OPEN HOLE  :CASC2
CASC3.                   :CASC3
CASC4.                   :CASC4
CASC5.                   :CASC5
CASD1.               6"  :CASD1
CASD2.               6"  :CASD2
CASD3.                   :CASD3
CASD4.                   :CASD4
CASD5.                   :CASD5
CAST1.                0  :CAST1
CAST2.               27  :CAST2
CAST3.                   :CAST3
CAST4.                   :CAST4
CAST5.                   :CAST5
DRDP.               275  :DRDP
EGL.             948 L1  :EGL
FTYP.             WATER  :FTYP
LDIR.                UP  :LDIR
LMF.             GROUND  :LMF
LOTD.               269  :LOTD
MGSCUTTINGSNO.      N/A  :MGSCUTTINGSNO
RANG.                19  :RANG
RATE.            15 FPM  :RATE
RECB.             MAYER  :RECB
RMKS.                    :RMKS
RNGD.                 W  :RNGD
RUN.                  1  :RUN
SECT.                31  :SECT
STOP_FT.            269  :STOP.FT
STRT_FT.              4  :STRT.FT
SUBS.            CDCDBB  :SUBS
SWL.                 24  :SWL
TOOL. CALIPER (GO4-CAL-PLUG-7090)  :TOOL
TOWN.               112  :TOWN
#------------------------------------------------------------
~OTHER
#------------------------------------------------------------
~A  DEPT[FT]  CALIPER-IN        TIME        TCPU       MOTOR  CALIPER-CM        OPEN       CLOSE         ARM       SPEED  TOOLPOWERV  TOOLPOWERC
# ...
     141.990     6.21257    0.556356     20.3031     128.000     15.7016     0.00000     1.00000    -1.00000     17.7165     120.971     24.7216
     142.154     6.26555    0.560140     20.1792     128.000     15.8329     0.00000     1.00000    -1.00000     17.6357     121.000     24.8649
     142.318    -99999.0    -99999.0    -99999.0    -99999.0    -99999.0    -99999.0    -99999.0    -99999.0     17.6345     119.031     19.5424
     142.482     6.28005    -99999.0    -99999.0    -99999.0     15.8689    -99999.0    -99999.0    -99999.0     17.7153     119.000     19.4595
     142.646     6.28005    0.552000     20.1325     128.000     15.8689     0.00000     1.00000    -1.00000     17.7165     118.016     14.1394
     142.810     6.28005    0.555920     20.3028     128.000     15.8689     0.00000     1.00000    -1.00000     17.7165     118.000     14.0541
     142.974    -99999.0    -99999.0    -99999.0    -99999.0    -99999.0    -99999.0    -99999.0    -99999.0     17.7165     119.967     18.3078
     143.138    -99999.0    0.562000     20.1325     128.000    -99999.0     0.00000     1.00000    -1.00000     17.7165     120.000     18.3784
     143.302     6.33066    0.561217     20.1325     128.000     15.9943     0.00000     1.00000    -1.00000     17.6359     120.000     24.7560
     143.466     6.34387    0.561000     20.1325     128.000     16.0270     0.00000     1.00000    -1.00000     17.6345     119.017     14.2380
     143.630    -99999.0    -99999.0    -99999.0    -99999.0    -99999.0    -99999.0    -99999.0    -99999.0     17.5539     119.000     14.0541
     143.794     6.34753    -99999.0    -99999.0    -99999.0     16.0361    -99999.0    -99999.0    -99999.0     17.5525     120.965     20.4267
     143.958     6.25516    0.560000     20.1325     128.000     15.8072     0.00000     1.00000    -1.00000     17.5525     121.000     20.5405
     144.122     6.15030    0.556872     20.3024     128.000     15.5473     0.00000     1.00000    -1.00000     17.5525     120.018     23.7251
     144.286     6.11503    -99999.0    -99999.0    -99999.0     15.4599    -99999.0    -99999.0    -99999.0     17.4720     120.000     23.7838
     144.450    -99999.0    0.556000     20.1325     128.000    -99999.0     0.00000     1.00000    -1.00000     17.6315     119.019     14.2352
     144.614    -99999.0    0.557562     20.1325     128.000    -99999.0     0.00000     1.00000    -1.00000     17.6345     119.000     14.0541
     144.778     6.29692    0.554095     20.1325     128.000     15.9107     0.00000     1.00000    -1.00000     17.6345     120.962     20.4168
     144.942    -99999.0    0.556903     20.1325     128.000    -99999.0     0.00000     1.00000    -1.00000     17.6345     120.019     25.8412
     145.106     6.19570    -99999.0    -99999.0    -99999.0     15.6598    -99999.0    -99999.0    -99999.0     17.7149     120.000     25.9459
     145.270     6.19570    -99999.0    -99999.0    -99999.0     15.6598    -99999.0    -99999.0    -99999.0     17.7165     119.020     19.5886
     145.434     6.15623    0.560000     20.1325     128.000     15.5620     0.00000     1.00000    -1.00000     17.5558     119.000     19.4595
     145.598     6.13193    -99999.0    -99999.0    -99999.0     15.5018    -99999.0    -99999.0    -99999.0     17.6328     119.000     14.1642
     145.762     6.12822    0.557000     20.1325     128.000     15.4926     0.00000     1.00000    -1.00000     17.6345     119.000     14.0541
     145.926     6.12822    0.557000     20.1325     128.000     15.4926     0.00000     1.00000    -1.00000     17.6345     120.958     20.4049
     146.090     6.14136    0.552327     20.1325     128.000     15.5252     0.00000     1.00000    -1.00000     17.6345     121.000     20.5405
     146.254     6.11882    0.553336     20.3017     128.000     15.4693     0.00000     1.00000    -1.00000     17.6345     120.021     24.7722
     146.418     6.22952    0.554778     20.1807     128.000     15.7436     0.00000     1.00000    -1.00000     17.6345     118.043     17.4613
     146.582    -99999.0    0.556556     20.3016     128.000    -99999.0     0.00000     1.00000    -1.00000     17.7950     118.000     17.2973
     146.746     6.14509    0.557000     20.1808     128.000     15.5344     0.00000     1.00000    -1.00000     17.7986     118.978     15.1830
     146.910     6.14509    0.560111     20.1325     128.000     15.5344     0.00000     1.00000    -1.00000     17.7986     119.000     15.1351
     147.074     6.10574    0.563332     20.3014     128.000     15.4369     0.00000     1.00000    -1.00000     17.5581     120.955     23.5878
     147.238     6.10758    -99999.0    -99999.0    -99999.0     15.4415    -99999.0    -99999.0    -99999.0     17.5525     121.000     23.7838
     147.402     6.09824    0.562000     20.3498     128.000     15.4183     0.00000     1.00000    -1.00000     17.5525     120.023     25.8960
     147.566     6.09447    0.561223     20.1811     128.000     15.4090     0.00000     1.00000    -1.00000     17.5525     120.000     25.9459
     147.730     6.09447    0.562553     20.3012     128.000     15.4090     0.00000     1.00000    -1.00000     17.4724     118.048     14.3371
     147.894    -99999.0    0.559120     20.1812     128.000    -99999.0     0.00000     1.00000    -1.00000     17.4705     118.000     14.0541
     148.058     6.09447    0.552570     20.1325     128.000     15.4090     0.00000     1.00000    -1.00000     17.4705     119.951     18.2735
     148.222     6.09447    0.554102     20.1325     128.000     15.4090     0.00000     1.00000    -1.00000     17.4705     120.976     25.7606
     148.386     6.13371    0.558877     20.1325     128.000     15.5062     0.00000     1.00000    -1.00000     17.7904     121.000     25.9459
     148.550     6.24968    -99999.0    -99999.0    -99999.0     15.7936    -99999.0    -99999.0    -99999.0     17.7186     118.075     17.5137
     148.714    -99999.0    0.560000     20.1325     128.000    -99999.0     0.00000     1.00000    -1.00000     17.7165     118.000     17.2973
     148.878     6.28005    0.560775     20.1325     128.000     15.8689     0.00000     1.00000    -1.00000     17.4767     118.975     13.0832
     149.042     6.37148    0.558677     20.1325     128.000     16.0954     0.00000     1.00000    -1.00000     17.4705     119.000     12.9730
     149.206     6.99875    0.562644     20.3007     128.000     17.6497     0.00000     1.00000    -1.00000     17.6302     120.948     20.3437
     149.370     6.69123    -99999.0    -99999.0    -99999.0     16.8877    -99999.0    -99999.0    -99999.0     17.6345     121.000     20.5405
     149.534     6.27595    0.553000     20.3498     128.000     15.8587     0.00000     1.00000    -1.00000     17.5547     120.027     25.8024
     149.698     6.18265    0.556093     20.3498     128.000     15.6275     0.00000     1.00000    -1.00000     17.5525     118.054     17.5289
     149.862     6.17883    0.552362     20.1818     128.000     15.6180     0.00000     1.00000    -1.00000     17.7121     118.000     17.2973
     150.026     6.32223    0.552546     20.1325     128.000     15.9734     0.00000     1.00000    -1.00000     17.7165     119.946     16.2457
     150.190     6.16892    0.553000     20.3003     128.000     15.5935     0.00000     1.00000    -1.00000     17.7165     120.000     16.2162
     150.354     6.09832    0.557634     20.1820     128.000     15.4185     0.00000     1.00000    -1.00000     17.8760     120.972     25.6757
     150.518     6.09447    0.562860     20.3002     128.000     15.4090     0.00000     1.00000    -1.00000     17.8806     121.000     25.9459
     150.682     6.09447    0.564772     20.1821     128.000     15.4090     0.00000     1.00000    -1.00000     17.6415     119.057     15.4411
     150.846     6.10749    0.564229     20.3001     128.000     15.4413     0.00000     1.00000    -1.00000     17.6345     119.000     15.1351
     151.010     6.11135    0.562458     20.3498     128.000     15.4508     0.00000     1.00000    -1.00000     17.4752     119.000     15.1351
